{
  "country": "FR",
  "departmentCode": "65",
  "label": "Departement 65",
  "communes": [
    {
      "insee": "65001",
      "nom": "Adast",
      "lat": 42.9762,
      "lon": -0.0769,
      "population": 299
    },
    {
      "insee": "65002",
      "nom": "Adé",
      "lat": 43.1443,
      "lon": -0.0275,
      "population": 856
    },
    {
      "insee": "65003",
      "nom": "Adervielle-Pouchergues",
      "lat": 42.7973,
      "lon": 0.3894,
      "population": 142
    },
    {
      "insee": "65004",
      "nom": "Agos-Vidalos",
      "lat": 43.0383,
      "lon": -0.0732,
      "population": 391
    },
    {
      "insee": "65005",
      "nom": "Allier",
      "lat": 43.1802,
      "lon": 0.1256,
      "population": 446
    },
    {
      "insee": "65006",
      "nom": "Ancizan",
      "lat": 42.9033,
      "lon": 0.2924,
      "population": 294
    },
    {
      "insee": "65007",
      "nom": "Andrest",
      "lat": 43.3156,
      "lon": 0.0655,
      "population": 1340
    },
    {
      "insee": "65009",
      "nom": "Anères",
      "lat": 43.0777,
      "lon": 0.4647,
      "population": 166
    },
    {
      "insee": "65010",
      "nom": "Angos",
      "lat": 43.199,
      "lon": 0.1661,
      "population": 230
    },
    {
      "insee": "65012",
      "nom": "Anla",
      "lat": 43.005,
      "lon": 0.5935,
      "population": 90
    },
    {
      "insee": "65013",
      "nom": "Ansost",
      "lat": 43.4323,
      "lon": 0.1101,
      "population": 58
    },
    {
      "insee": "65014",
      "nom": "Antichan",
      "lat": 42.9918,
      "lon": 0.5831,
      "population": 41
    },
    {
      "insee": "65015",
      "nom": "Antin",
      "lat": 43.3324,
      "lon": 0.2904,
      "population": 92
    },
    {
      "insee": "65016",
      "nom": "Antist",
      "lat": 43.1194,
      "lon": 0.1357,
      "population": 189
    },
    {
      "insee": "65017",
      "nom": "Aragnouet",
      "lat": 42.7783,
      "lon": 0.1908,
      "population": 289
    },
    {
      "insee": "65018",
      "nom": "Arbéost",
      "lat": 42.9762,
      "lon": -0.2707,
      "population": 73
    },
    {
      "insee": "65019",
      "nom": "Arcizac-Adour",
      "lat": 43.1502,
      "lon": 0.0894,
      "population": 614
    },
    {
      "insee": "65020",
      "nom": "Arcizac-ez-Angles",
      "lat": 43.0951,
      "lon": 0.0171,
      "population": 248
    },
    {
      "insee": "65021",
      "nom": "Arcizans-Avant",
      "lat": 42.9603,
      "lon": -0.1192,
      "population": 397
    },
    {
      "insee": "65022",
      "nom": "Arcizans-Dessus",
      "lat": 42.9962,
      "lon": -0.1623,
      "population": 116
    },
    {
      "insee": "65023",
      "nom": "Ardengost",
      "lat": 42.9273,
      "lon": 0.4132,
      "population": 12
    },
    {
      "insee": "65024",
      "nom": "Argelès-Bagnères",
      "lat": 43.091,
      "lon": 0.1972,
      "population": 103
    },
    {
      "insee": "65025",
      "nom": "Argelès-Gazost",
      "lat": 43.0071,
      "lon": -0.0966,
      "population": 2761
    },
    {
      "insee": "65026",
      "nom": "Aries-Espénan",
      "lat": 43.2769,
      "lon": 0.5299,
      "population": 91
    },
    {
      "insee": "65028",
      "nom": "Arné",
      "lat": 43.1747,
      "lon": 0.4931,
      "population": 181
    },
    {
      "insee": "65029",
      "nom": "Arras-en-Lavedan",
      "lat": 42.9646,
      "lon": -0.1432,
      "population": 501
    },
    {
      "insee": "65247",
      "nom": "Arrayou-Lahitte",
      "lat": 43.092,
      "lon": 0.0437,
      "population": 99
    },
    {
      "insee": "65031",
      "nom": "Arreau",
      "lat": 42.9154,
      "lon": 0.3337,
      "population": 725
    },
    {
      "insee": "65032",
      "nom": "Arrens-Marsous",
      "lat": 42.9089,
      "lon": -0.2517,
      "population": 694
    },
    {
      "insee": "65034",
      "nom": "Arrodets",
      "lat": 43.0305,
      "lon": 0.2803,
      "population": 23
    },
    {
      "insee": "65033",
      "nom": "Arrodets-ez-Angles",
      "lat": 43.0701,
      "lon": 0.0404,
      "population": 113
    },
    {
      "insee": "65035",
      "nom": "Artagnan",
      "lat": 43.409,
      "lon": 0.0812,
      "population": 504
    },
    {
      "insee": "65036",
      "nom": "Artalens-Souin",
      "lat": 42.9785,
      "lon": -0.0393,
      "population": 140
    },
    {
      "insee": "65037",
      "nom": "Artiguemy",
      "lat": 43.127,
      "lon": 0.245,
      "population": 87
    },
    {
      "insee": "65038",
      "nom": "Artigues",
      "lat": 43.0712,
      "lon": 0.0007,
      "population": 13
    },
    {
      "insee": "65039",
      "nom": "Aspin-Aure",
      "lat": 42.9378,
      "lon": 0.3303,
      "population": 43
    },
    {
      "insee": "65040",
      "nom": "Aspin-en-Lavedan",
      "lat": 43.0737,
      "lon": -0.0494,
      "population": 294
    },
    {
      "insee": "65041",
      "nom": "Asque",
      "lat": 43.0277,
      "lon": 0.2498,
      "population": 123
    },
    {
      "insee": "65042",
      "nom": "Asté",
      "lat": 43.0114,
      "lon": 0.2127,
      "population": 568
    },
    {
      "insee": "65043",
      "nom": "Astugue",
      "lat": 43.0954,
      "lon": 0.0727,
      "population": 263
    },
    {
      "insee": "65044",
      "nom": "Aubarède",
      "lat": 43.2719,
      "lon": 0.2501,
      "population": 283
    },
    {
      "insee": "65045",
      "nom": "Aucun",
      "lat": 42.986,
      "lon": -0.1986,
      "population": 267
    },
    {
      "insee": "65046",
      "nom": "Aulon",
      "lat": 42.8568,
      "lon": 0.2611,
      "population": 99
    },
    {
      "insee": "65047",
      "nom": "Aureilhan",
      "lat": 43.2488,
      "lon": 0.1065,
      "population": 8031
    },
    {
      "insee": "65048",
      "nom": "Aurensan",
      "lat": 43.3046,
      "lon": 0.0995,
      "population": 764
    },
    {
      "insee": "65049",
      "nom": "Auriébat",
      "lat": 43.4971,
      "lon": 0.085,
      "population": 241
    },
    {
      "insee": "65050",
      "nom": "Avajan",
      "lat": 42.8472,
      "lon": 0.402,
      "population": 82
    },
    {
      "insee": "65051",
      "nom": "Aventignan",
      "lat": 43.0607,
      "lon": 0.5219,
      "population": 204
    },
    {
      "insee": "65052",
      "nom": "Averan",
      "lat": 43.1355,
      "lon": -0.0001,
      "population": 86
    },
    {
      "insee": "65053",
      "nom": "Aveux",
      "lat": 43.0084,
      "lon": 0.5623,
      "population": 41
    },
    {
      "insee": "65054",
      "nom": "Avezac-Prat-Lahitte",
      "lat": 43.0673,
      "lon": 0.3324,
      "population": 581
    },
    {
      "insee": "65055",
      "nom": "Ayros-Arbouix",
      "lat": 43.0004,
      "lon": -0.0658,
      "population": 349
    },
    {
      "insee": "65056",
      "nom": "Ayzac-Ost",
      "lat": 43.0242,
      "lon": -0.0923,
      "population": 473
    },
    {
      "insee": "65057",
      "nom": "Azereix",
      "lat": 43.2027,
      "lon": -0.0233,
      "population": 992
    },
    {
      "insee": "65058",
      "nom": "Azet",
      "lat": 42.7823,
      "lon": 0.3566,
      "population": 148
    },
    {
      "insee": "65059",
      "nom": "Bagnères-de-Bigorre",
      "lat": 42.9686,
      "lon": 0.1298,
      "population": 7114
    },
    {
      "insee": "65060",
      "nom": "Banios",
      "lat": 43.0395,
      "lon": 0.226,
      "population": 66
    },
    {
      "insee": "65061",
      "nom": "Barbachen",
      "lat": 43.4286,
      "lon": 0.1267,
      "population": 41
    },
    {
      "insee": "65062",
      "nom": "Barbazan-Debat",
      "lat": 43.2019,
      "lon": 0.1295,
      "population": 3478
    },
    {
      "insee": "65063",
      "nom": "Barbazan-Dessus",
      "lat": 43.1642,
      "lon": 0.1437,
      "population": 155
    },
    {
      "insee": "65481",
      "nom": "Barèges",
      "lat": 42.8681,
      "lon": 0.1106,
      "population": 127
    },
    {
      "insee": "65064",
      "nom": "Bareilles",
      "lat": 42.8861,
      "lon": 0.4307,
      "population": 39
    },
    {
      "insee": "65065",
      "nom": "Barlest",
      "lat": 43.1497,
      "lon": -0.0959,
      "population": 334
    },
    {
      "insee": "65066",
      "nom": "Barrancoueu",
      "lat": 42.91,
      "lon": 0.3249,
      "population": 40
    },
    {
      "insee": "65067",
      "nom": "Barry",
      "lat": 43.1385,
      "lon": 0.0204,
      "population": 136
    },
    {
      "insee": "65068",
      "nom": "Barthe",
      "lat": 43.2865,
      "lon": 0.4758,
      "population": 25
    },
    {
      "insee": "65070",
      "nom": "Bartrès",
      "lat": 43.1361,
      "lon": -0.057,
      "population": 485
    },
    {
      "insee": "65071",
      "nom": "Batsère",
      "lat": 43.0608,
      "lon": 0.2833,
      "population": 42
    },
    {
      "insee": "65072",
      "nom": "Bazet",
      "lat": 43.2897,
      "lon": 0.0767,
      "population": 1858
    },
    {
      "insee": "65073",
      "nom": "Bazillac",
      "lat": 43.3598,
      "lon": 0.1129,
      "population": 373
    },
    {
      "insee": "65074",
      "nom": "Bazordan",
      "lat": 43.2226,
      "lon": 0.5459,
      "population": 111
    },
    {
      "insee": "65075",
      "nom": "Bazus-Aure",
      "lat": 42.8571,
      "lon": 0.3429,
      "population": 147
    },
    {
      "insee": "65076",
      "nom": "Bazus-Neste",
      "lat": 43.0313,
      "lon": 0.3876,
      "population": 39
    },
    {
      "insee": "65077",
      "nom": "Beaucens",
      "lat": 42.9546,
      "lon": 0.0182,
      "population": 413
    },
    {
      "insee": "65078",
      "nom": "Beaudéan",
      "lat": 42.996,
      "lon": 0.1366,
      "population": 383
    },
    {
      "insee": "65079",
      "nom": "Bégole",
      "lat": 43.1606,
      "lon": 0.3117,
      "population": 189
    },
    {
      "insee": "65080",
      "nom": "Bénac",
      "lat": 43.153,
      "lon": 0.0299,
      "population": 528
    },
    {
      "insee": "65081",
      "nom": "Benqué-Molère",
      "lat": 43.0966,
      "lon": 0.2923,
      "population": 140
    },
    {
      "insee": "65082",
      "nom": "Berbérust-Lias",
      "lat": 43.0359,
      "lon": -0.0355,
      "population": 44
    },
    {
      "insee": "65083",
      "nom": "Bernac-Debat",
      "lat": 43.1699,
      "lon": 0.1108,
      "population": 743
    },
    {
      "insee": "65084",
      "nom": "Bernac-Dessus",
      "lat": 43.1547,
      "lon": 0.1302,
      "population": 282
    },
    {
      "insee": "65085",
      "nom": "Bernadets-Debat",
      "lat": 43.3527,
      "lon": 0.3195,
      "population": 98
    },
    {
      "insee": "65086",
      "nom": "Bernadets-Dessus",
      "lat": 43.2133,
      "lon": 0.2959,
      "population": 146
    },
    {
      "insee": "65087",
      "nom": "Bertren",
      "lat": 42.9998,
      "lon": 0.6181,
      "population": 153
    },
    {
      "insee": "65088",
      "nom": "Betbèze",
      "lat": 43.2908,
      "lon": 0.5698,
      "population": 42
    },
    {
      "insee": "65089",
      "nom": "Betpouey",
      "lat": 42.8601,
      "lon": 0.0644,
      "population": 78
    },
    {
      "insee": "65090",
      "nom": "Betpouy",
      "lat": 43.2743,
      "lon": 0.4542,
      "population": 72
    },
    {
      "insee": "65091",
      "nom": "Bettes",
      "lat": 43.0798,
      "lon": 0.2213,
      "population": 60
    },
    {
      "insee": "65092",
      "nom": "Beyrède-Jumet-Camous",
      "lat": 42.9547,
      "lon": 0.349,
      "population": 194
    },
    {
      "insee": "65093",
      "nom": "Bize",
      "lat": 43.0345,
      "lon": 0.4633,
      "population": 208
    },
    {
      "insee": "65094",
      "nom": "Bizous",
      "lat": 43.0655,
      "lon": 0.4391,
      "population": 127
    },
    {
      "insee": "65095",
      "nom": "Bonnefont",
      "lat": 43.242,
      "lon": 0.3499,
      "population": 314
    },
    {
      "insee": "65096",
      "nom": "Bonnemazon",
      "lat": 43.1084,
      "lon": 0.255,
      "population": 69
    },
    {
      "insee": "65097",
      "nom": "Bonrepos",
      "lat": 43.1897,
      "lon": 0.3808,
      "population": 194
    },
    {
      "insee": "65098",
      "nom": "Boô-Silhen",
      "lat": 43.0197,
      "lon": -0.072,
      "population": 312
    },
    {
      "insee": "65099",
      "nom": "Bordères-Louron",
      "lat": 42.8688,
      "lon": 0.4216,
      "population": 152
    },
    {
      "insee": "65100",
      "nom": "Bordères-sur-l'Échez",
      "lat": 43.2651,
      "lon": 0.0391,
      "population": 5399
    },
    {
      "insee": "65101",
      "nom": "Bordes",
      "lat": 43.1975,
      "lon": 0.2227,
      "population": 752
    },
    {
      "insee": "65102",
      "nom": "Bouilh-Devant",
      "lat": 43.3352,
      "lon": 0.2614,
      "population": 23
    },
    {
      "insee": "65103",
      "nom": "Bouilh-Péreuilh",
      "lat": 43.3088,
      "lon": 0.1926,
      "population": 130
    },
    {
      "insee": "65104",
      "nom": "Boulin",
      "lat": 43.2543,
      "lon": 0.1351,
      "population": 311
    },
    {
      "insee": "65105",
      "nom": "Bourg-de-Bigorre",
      "lat": 43.0846,
      "lon": 0.2571,
      "population": 194
    },
    {
      "insee": "65106",
      "nom": "Bourisp",
      "lat": 42.8332,
      "lon": 0.3416,
      "population": 191
    },
    {
      "insee": "65107",
      "nom": "Bourréac",
      "lat": 43.1053,
      "lon": 0.0031,
      "population": 117
    },
    {
      "insee": "65108",
      "nom": "Bours",
      "lat": 43.2771,
      "lon": 0.0905,
      "population": 882
    },
    {
      "insee": "65109",
      "nom": "Bramevaque",
      "lat": 42.9768,
      "lon": 0.5559,
      "population": 31
    },
    {
      "insee": "65110",
      "nom": "Bugard",
      "lat": 43.2539,
      "lon": 0.3124,
      "population": 93
    },
    {
      "insee": "65111",
      "nom": "Bulan",
      "lat": 43.0425,
      "lon": 0.2802,
      "population": 58
    },
    {
      "insee": "65112",
      "nom": "Bun",
      "lat": 42.9673,
      "lon": -0.1619,
      "population": 158
    },
    {
      "insee": "65113",
      "nom": "Burg",
      "lat": 43.1882,
      "lon": 0.3203,
      "population": 271
    },
    {
      "insee": "65114",
      "nom": "Buzon",
      "lat": 43.4501,
      "lon": 0.1491,
      "population": 79
    },
    {
      "insee": "65115",
      "nom": "Cabanac",
      "lat": 43.2742,
      "lon": 0.223,
      "population": 304
    },
    {
      "insee": "65116",
      "nom": "Cadéac",
      "lat": 42.8939,
      "lon": 0.334,
      "population": 309
    },
    {
      "insee": "65117",
      "nom": "Cadeilhan-Trachère",
      "lat": 42.8109,
      "lon": 0.2906,
      "population": 43
    },
    {
      "insee": "65118",
      "nom": "Caharet",
      "lat": 43.1454,
      "lon": 0.3116,
      "population": 30
    },
    {
      "insee": "65119",
      "nom": "Caixon",
      "lat": 43.4107,
      "lon": 0.0186,
      "population": 340
    },
    {
      "insee": "65120",
      "nom": "Calavanté",
      "lat": 43.2041,
      "lon": 0.1661,
      "population": 329
    },
    {
      "insee": "65121",
      "nom": "Camalès",
      "lat": 43.3599,
      "lon": 0.0811,
      "population": 371
    },
    {
      "insee": "65123",
      "nom": "Campan",
      "lat": 42.9489,
      "lon": 0.2262,
      "population": 1245
    },
    {
      "insee": "65124",
      "nom": "Camparan",
      "lat": 42.8306,
      "lon": 0.3568,
      "population": 51
    },
    {
      "insee": "65125",
      "nom": "Campistrous",
      "lat": 43.1437,
      "lon": 0.378,
      "population": 314
    },
    {
      "insee": "65126",
      "nom": "Campuzan",
      "lat": 43.2796,
      "lon": 0.4336,
      "population": 147
    },
    {
      "insee": "65482",
      "nom": "Cantaous",
      "lat": 43.1016,
      "lon": 0.442,
      "population": 424
    },
    {
      "insee": "65127",
      "nom": "Capvern",
      "lat": 43.105,
      "lon": 0.3282,
      "population": 1298
    },
    {
      "insee": "65128",
      "nom": "Castelbajac",
      "lat": 43.1838,
      "lon": 0.3568,
      "population": 132
    },
    {
      "insee": "65129",
      "nom": "Castelnau-Magnoac",
      "lat": 43.3008,
      "lon": 0.5142,
      "population": 750
    },
    {
      "insee": "65130",
      "nom": "Castelnau-Rivière-Basse",
      "lat": 43.5793,
      "lon": -0.0328,
      "population": 649
    },
    {
      "insee": "65131",
      "nom": "Castelvieilh",
      "lat": 43.2795,
      "lon": 0.2023,
      "population": 249
    },
    {
      "insee": "65132",
      "nom": "Castéra-Lanusse",
      "lat": 43.1716,
      "lon": 0.2902,
      "population": 45
    },
    {
      "insee": "65133",
      "nom": "Castéra-Lou",
      "lat": 43.3234,
      "lon": 0.155,
      "population": 220
    },
    {
      "insee": "65134",
      "nom": "Casterets",
      "lat": 43.3154,
      "lon": 0.5831,
      "population": 17
    },
    {
      "insee": "65135",
      "nom": "Castillon",
      "lat": 43.0951,
      "lon": 0.2219,
      "population": 73
    },
    {
      "insee": "65136",
      "nom": "Caubous",
      "lat": 43.2406,
      "lon": 0.4706,
      "population": 32
    },
    {
      "insee": "65137",
      "nom": "Caussade-Rivière",
      "lat": 43.5181,
      "lon": 0.0113,
      "population": 99
    },
    {
      "insee": "65138",
      "nom": "Cauterets",
      "lat": 42.8656,
      "lon": -0.143,
      "population": 829
    },
    {
      "insee": "65139",
      "nom": "Cazarilh",
      "lat": 42.9493,
      "lon": 0.5892,
      "population": 62
    },
    {
      "insee": "65140",
      "nom": "Cazaux-Debat",
      "lat": 42.8871,
      "lon": 0.3819,
      "population": 34
    },
    {
      "insee": "65141",
      "nom": "Cazaux-Fréchet-Anéran-Camors",
      "lat": 42.8433,
      "lon": 0.4382,
      "population": 68
    },
    {
      "insee": "65142",
      "nom": "Chelle-Debat",
      "lat": 43.3014,
      "lon": 0.2372,
      "population": 220
    },
    {
      "insee": "65143",
      "nom": "Chelle-Spou",
      "lat": 43.1427,
      "lon": 0.2476,
      "population": 106
    },
    {
      "insee": "65144",
      "nom": "Cheust",
      "lat": 43.0551,
      "lon": 0.0304,
      "population": 85
    },
    {
      "insee": "65145",
      "nom": "Chèze",
      "lat": 42.9206,
      "lon": -0.0197,
      "population": 50
    },
    {
      "insee": "65146",
      "nom": "Chis",
      "lat": 43.2972,
      "lon": 0.114,
      "population": 297
    },
    {
      "insee": "65147",
      "nom": "Cieutat",
      "lat": 43.1261,
      "lon": 0.213,
      "population": 603
    },
    {
      "insee": "65148",
      "nom": "Cizos",
      "lat": 43.2629,
      "lon": 0.4898,
      "population": 136
    },
    {
      "insee": "65149",
      "nom": "Clarac",
      "lat": 43.2181,
      "lon": 0.2544,
      "population": 160
    },
    {
      "insee": "65150",
      "nom": "Clarens",
      "lat": 43.1519,
      "lon": 0.4145,
      "population": 513
    },
    {
      "insee": "65151",
      "nom": "Collongues",
      "lat": 43.289,
      "lon": 0.1681,
      "population": 153
    },
    {
      "insee": "65153",
      "nom": "Coussan",
      "lat": 43.2442,
      "lon": 0.2055,
      "population": 104
    },
    {
      "insee": "65154",
      "nom": "Créchets",
      "lat": 43.0012,
      "lon": 0.5667,
      "population": 45
    },
    {
      "insee": "65155",
      "nom": "Devèze",
      "lat": 43.2776,
      "lon": 0.548,
      "population": 50
    },
    {
      "insee": "65156",
      "nom": "Dours",
      "lat": 43.3083,
      "lon": 0.1345,
      "population": 225
    },
    {
      "insee": "65157",
      "nom": "Ens",
      "lat": 42.7955,
      "lon": 0.3366,
      "population": 28
    },
    {
      "insee": "65158",
      "nom": "Esbareich",
      "lat": 42.9299,
      "lon": 0.5736,
      "population": 83
    },
    {
      "insee": "65159",
      "nom": "Escala",
      "lat": 43.0879,
      "lon": 0.4104,
      "population": 347
    },
    {
      "insee": "65160",
      "nom": "Escaunets",
      "lat": 43.3467,
      "lon": -0.0772,
      "population": 117
    },
    {
      "insee": "65161",
      "nom": "Escondeaux",
      "lat": 43.3482,
      "lon": 0.1329,
      "population": 280
    },
    {
      "insee": "65162",
      "nom": "Esconnets",
      "lat": 43.0736,
      "lon": 0.2326,
      "population": 35
    },
    {
      "insee": "65163",
      "nom": "Escots",
      "lat": 43.0586,
      "lon": 0.2604,
      "population": 39
    },
    {
      "insee": "65164",
      "nom": "Escoubès-Pouts",
      "lat": 43.1063,
      "lon": 0.0267,
      "population": 91
    },
    {
      "insee": "65165",
      "nom": "Esparros",
      "lat": 43.0109,
      "lon": 0.3149,
      "population": 165
    },
    {
      "insee": "65166",
      "nom": "Espèche",
      "lat": 43.0618,
      "lon": 0.3019,
      "population": 42
    },
    {
      "insee": "65167",
      "nom": "Espieilh",
      "lat": 43.0788,
      "lon": 0.2408,
      "population": 25
    },
    {
      "insee": "65168",
      "nom": "Esquièze-Sère",
      "lat": 42.8806,
      "lon": -0.0069,
      "population": 412
    },
    {
      "insee": "65169",
      "nom": "Estaing",
      "lat": 42.8882,
      "lon": -0.2035,
      "population": 95
    },
    {
      "insee": "65170",
      "nom": "Estampures",
      "lat": 43.3761,
      "lon": 0.2852,
      "population": 73
    },
    {
      "insee": "65171",
      "nom": "Estarvielle",
      "lat": 42.8204,
      "lon": 0.4156,
      "population": 30
    },
    {
      "insee": "65172",
      "nom": "Estensan",
      "lat": 42.8164,
      "lon": 0.3444,
      "population": 48
    },
    {
      "insee": "65173",
      "nom": "Esterre",
      "lat": 42.8729,
      "lon": 0.0114,
      "population": 184
    },
    {
      "insee": "65174",
      "nom": "Estirac",
      "lat": 43.5008,
      "lon": 0.0292,
      "population": 104
    },
    {
      "insee": "65175",
      "nom": "Ferrère",
      "lat": 42.9171,
      "lon": 0.4941,
      "population": 38
    },
    {
      "insee": "65176",
      "nom": "Ferrières",
      "lat": 43.0114,
      "lon": -0.2379,
      "population": 94
    },
    {
      "insee": "65177",
      "nom": "Fontrailles",
      "lat": 43.3426,
      "lon": 0.3654,
      "population": 168
    },
    {
      "insee": "65178",
      "nom": "Fréchède",
      "lat": 43.3655,
      "lon": 0.2595,
      "population": 43
    },
    {
      "insee": "65179",
      "nom": "Fréchendets",
      "lat": 43.0602,
      "lon": 0.2333,
      "population": 36
    },
    {
      "insee": "65180",
      "nom": "Fréchet-Aure",
      "lat": 42.9296,
      "lon": 0.3836,
      "population": 16
    },
    {
      "insee": "65181",
      "nom": "Fréchou-Fréchet",
      "lat": 43.1745,
      "lon": 0.1648,
      "population": 173
    },
    {
      "insee": "65182",
      "nom": "Gaillagos",
      "lat": 42.9948,
      "lon": -0.1817,
      "population": 125
    },
    {
      "insee": "65183",
      "nom": "Galan",
      "lat": 43.2229,
      "lon": 0.4033,
      "population": 698
    },
    {
      "insee": "65184",
      "nom": "Galez",
      "lat": 43.1858,
      "lon": 0.4081,
      "population": 181
    },
    {
      "insee": "65185",
      "nom": "Gardères",
      "lat": 43.2813,
      "lon": -0.1084,
      "population": 445
    },
    {
      "insee": "65186",
      "nom": "Gaudent",
      "lat": 42.9972,
      "lon": 0.5587,
      "population": 41
    },
    {
      "insee": "65187",
      "nom": "Gaussan",
      "lat": 43.2231,
      "lon": 0.4779,
      "population": 99
    },
    {
      "insee": "65192",
      "nom": "Gavarnie-Gèdre",
      "lat": 42.7571,
      "lon": -0.0054,
      "population": 340
    },
    {
      "insee": "65189",
      "nom": "Gayan",
      "lat": 43.3047,
      "lon": 0.0485,
      "population": 264
    },
    {
      "insee": "65190",
      "nom": "Gazave",
      "lat": 43.0294,
      "lon": 0.4215,
      "population": 72
    },
    {
      "insee": "65191",
      "nom": "Gazost",
      "lat": 43.0028,
      "lon": 0.0252,
      "population": 132
    },
    {
      "insee": "65193",
      "nom": "Gembrie",
      "lat": 42.9897,
      "lon": 0.5759,
      "population": 89
    },
    {
      "insee": "65194",
      "nom": "Générest",
      "lat": 43.027,
      "lon": 0.5151,
      "population": 91
    },
    {
      "insee": "65195",
      "nom": "Génos",
      "lat": 42.7627,
      "lon": 0.3869,
      "population": 127
    },
    {
      "insee": "65196",
      "nom": "Gensac",
      "lat": 43.4338,
      "lon": 0.0901,
      "population": 86
    },
    {
      "insee": "65197",
      "nom": "Ger",
      "lat": 43.0532,
      "lon": -0.0421,
      "population": 160
    },
    {
      "insee": "65198",
      "nom": "Gerde",
      "lat": 43.0589,
      "lon": 0.1794,
      "population": 1196
    },
    {
      "insee": "65199",
      "nom": "Germ",
      "lat": 42.7736,
      "lon": 0.4406,
      "population": 33
    },
    {
      "insee": "65200",
      "nom": "Germs-sur-l'Oussouet",
      "lat": 43.039,
      "lon": 0.0596,
      "population": 99
    },
    {
      "insee": "65201",
      "nom": "Geu",
      "lat": 43.0398,
      "lon": -0.0508,
      "population": 186
    },
    {
      "insee": "65202",
      "nom": "Gez",
      "lat": 43.0103,
      "lon": -0.1275,
      "population": 329
    },
    {
      "insee": "65203",
      "nom": "Gez-ez-Angles",
      "lat": 43.0889,
      "lon": 0.0245,
      "population": 22
    },
    {
      "insee": "65204",
      "nom": "Gonez",
      "lat": 43.2329,
      "lon": 0.2109,
      "population": 26
    },
    {
      "insee": "65205",
      "nom": "Gouaux",
      "lat": 42.8559,
      "lon": 0.3733,
      "population": 54
    },
    {
      "insee": "65206",
      "nom": "Goudon",
      "lat": 43.2457,
      "lon": 0.2364,
      "population": 250
    },
    {
      "insee": "65207",
      "nom": "Gourgue",
      "lat": 43.138,
      "lon": 0.2699,
      "population": 58
    },
    {
      "insee": "65208",
      "nom": "Grailhen",
      "lat": 42.8328,
      "lon": 0.3721,
      "population": 22
    },
    {
      "insee": "65209",
      "nom": "Grézian",
      "lat": 42.8722,
      "lon": 0.3531,
      "population": 87
    },
    {
      "insee": "65210",
      "nom": "Grust",
      "lat": 42.8892,
      "lon": -0.0548,
      "population": 38
    },
    {
      "insee": "65211",
      "nom": "Guchan",
      "lat": 42.8459,
      "lon": 0.3464,
      "population": 151
    },
    {
      "insee": "65212",
      "nom": "Guchen",
      "lat": 42.8554,
      "lon": 0.3238,
      "population": 301
    },
    {
      "insee": "65213",
      "nom": "Guizerix",
      "lat": 43.3223,
      "lon": 0.4514,
      "population": 112
    },
    {
      "insee": "65214",
      "nom": "Hachan",
      "lat": 43.285,
      "lon": 0.4564,
      "population": 46
    },
    {
      "insee": "65215",
      "nom": "Hagedet",
      "lat": 43.5181,
      "lon": -0.0268,
      "population": 38
    },
    {
      "insee": "65216",
      "nom": "Hauban",
      "lat": 43.0991,
      "lon": 0.1646,
      "population": 94
    },
    {
      "insee": "65217",
      "nom": "Hautaget",
      "lat": 43.0589,
      "lon": 0.4569,
      "population": 59
    },
    {
      "insee": "65218",
      "nom": "Hèches",
      "lat": 42.998,
      "lon": 0.3765,
      "population": 577
    },
    {
      "insee": "65219",
      "nom": "Hères",
      "lat": 43.5509,
      "lon": -0.0048,
      "population": 96
    },
    {
      "insee": "65220",
      "nom": "Hibarette",
      "lat": 43.1646,
      "lon": 0.0384,
      "population": 232
    },
    {
      "insee": "65221",
      "nom": "Hiis",
      "lat": 43.1365,
      "lon": 0.0949,
      "population": 268
    },
    {
      "insee": "65222",
      "nom": "Hitte",
      "lat": 43.1546,
      "lon": 0.1632,
      "population": 133
    },
    {
      "insee": "65223",
      "nom": "Horgues",
      "lat": 43.188,
      "lon": 0.0809,
      "population": 1287
    },
    {
      "insee": "65224",
      "nom": "Houeydets",
      "lat": 43.1542,
      "lon": 0.3553,
      "population": 287
    },
    {
      "insee": "65225",
      "nom": "Hourc",
      "lat": 43.251,
      "lon": 0.1724,
      "population": 109
    },
    {
      "insee": "65226",
      "nom": "Ibos",
      "lat": 43.2464,
      "lon": -0.0013,
      "population": 2813
    },
    {
      "insee": "65228",
      "nom": "Ilhet",
      "lat": 42.9644,
      "lon": 0.4035,
      "population": 122
    },
    {
      "insee": "65229",
      "nom": "Ilheu",
      "lat": 42.9961,
      "lon": 0.5984,
      "population": 55
    },
    {
      "insee": "65230",
      "nom": "Izaourt",
      "lat": 43.0172,
      "lon": 0.6019,
      "population": 256
    },
    {
      "insee": "65231",
      "nom": "Izaux",
      "lat": 43.0577,
      "lon": 0.3771,
      "population": 210
    },
    {
      "insee": "65232",
      "nom": "Jacque",
      "lat": 43.3189,
      "lon": 0.2159,
      "population": 68
    },
    {
      "insee": "65233",
      "nom": "Jarret",
      "lat": 43.0755,
      "lon": -0.0182,
      "population": 299
    },
    {
      "insee": "65234",
      "nom": "Jézeau",
      "lat": 42.9098,
      "lon": 0.4096,
      "population": 108
    },
    {
      "insee": "65235",
      "nom": "Juillan",
      "lat": 43.1991,
      "lon": 0.0231,
      "population": 3999
    },
    {
      "insee": "65236",
      "nom": "Julos",
      "lat": 43.1192,
      "lon": -0.0016,
      "population": 450
    },
    {
      "insee": "65237",
      "nom": "Juncalas",
      "lat": 43.0492,
      "lon": -0.0002,
      "population": 174
    },
    {
      "insee": "65069",
      "nom": "La Barthe-de-Neste",
      "lat": 43.0809,
      "lon": 0.3815,
      "population": 1240
    },
    {
      "insee": "65238",
      "nom": "Labassère",
      "lat": 43.0625,
      "lon": 0.09,
      "population": 227
    },
    {
      "insee": "65239",
      "nom": "Labastide",
      "lat": 43.0371,
      "lon": 0.3508,
      "population": 147
    },
    {
      "insee": "65240",
      "nom": "Labatut-Rivière",
      "lat": 43.5257,
      "lon": 0.0355,
      "population": 394
    },
    {
      "insee": "65241",
      "nom": "Laborde",
      "lat": 43.0333,
      "lon": 0.2959,
      "population": 83
    },
    {
      "insee": "65242",
      "nom": "Lacassagne",
      "lat": 43.3567,
      "lon": 0.1538,
      "population": 251
    },
    {
      "insee": "65243",
      "nom": "Lafitole",
      "lat": 43.4495,
      "lon": 0.0775,
      "population": 433
    },
    {
      "insee": "65244",
      "nom": "Lagarde",
      "lat": 43.3046,
      "lon": 0.0216,
      "population": 530
    },
    {
      "insee": "65245",
      "nom": "Lagrange",
      "lat": 43.1272,
      "lon": 0.3482,
      "population": 261
    },
    {
      "insee": "65248",
      "nom": "Lahitte-Toupière",
      "lat": 43.4573,
      "lon": -0.0121,
      "population": 263
    },
    {
      "insee": "65249",
      "nom": "Lalanne",
      "lat": 43.2712,
      "lon": 0.5872,
      "population": 99
    },
    {
      "insee": "65250",
      "nom": "Lalanne-Trie",
      "lat": 43.3114,
      "lon": 0.3393,
      "population": 118
    },
    {
      "insee": "65251",
      "nom": "Laloubère",
      "lat": 43.2079,
      "lon": 0.0766,
      "population": 1846
    },
    {
      "insee": "65252",
      "nom": "Lamarque-Pontacq",
      "lat": 43.1628,
      "lon": -0.1015,
      "population": 862
    },
    {
      "insee": "65253",
      "nom": "Lamarque-Rustaing",
      "lat": 43.2746,
      "lon": 0.2954,
      "population": 54
    },
    {
      "insee": "65254",
      "nom": "Laméac",
      "lat": 43.3313,
      "lon": 0.2295,
      "population": 156
    },
    {
      "insee": "65255",
      "nom": "Lançon",
      "lat": 42.8827,
      "lon": 0.3683,
      "population": 34
    },
    {
      "insee": "65256",
      "nom": "Lanespède",
      "lat": 43.1651,
      "lon": 0.2744,
      "population": 144
    },
    {
      "insee": "65257",
      "nom": "Lanne",
      "lat": 43.1609,
      "lon": 0.004,
      "population": 598
    },
    {
      "insee": "65258",
      "nom": "Lannemezan",
      "lat": 43.1248,
      "lon": 0.3966,
      "population": 5811
    },
    {
      "insee": "65259",
      "nom": "Lansac",
      "lat": 43.2217,
      "lon": 0.1734,
      "population": 185
    },
    {
      "insee": "65260",
      "nom": "Lapeyre",
      "lat": 43.324,
      "lon": 0.331,
      "population": 90
    },
    {
      "insee": "65261",
      "nom": "Laran",
      "lat": 43.233,
      "lon": 0.4755,
      "population": 46
    },
    {
      "insee": "65262",
      "nom": "Larreule",
      "lat": 43.4416,
      "lon": 0.018,
      "population": 379
    },
    {
      "insee": "65263",
      "nom": "Larroque",
      "lat": 43.3124,
      "lon": 0.4888,
      "population": 101
    },
    {
      "insee": "65264",
      "nom": "Lascazères",
      "lat": 43.4954,
      "lon": -0.0298,
      "population": 320
    },
    {
      "insee": "65265",
      "nom": "Laslades",
      "lat": 43.2293,
      "lon": 0.1687,
      "population": 357
    },
    {
      "insee": "65266",
      "nom": "Lassales",
      "lat": 43.2096,
      "lon": 0.4874,
      "population": 35
    },
    {
      "insee": "65267",
      "nom": "Lau-Balagnas",
      "lat": 42.9918,
      "lon": -0.0918,
      "population": 501
    },
    {
      "insee": "65268",
      "nom": "Layrisse",
      "lat": 43.1377,
      "lon": 0.0496,
      "population": 249
    },
    {
      "insee": "65011",
      "nom": "Les Angles",
      "lat": 43.0838,
      "lon": 0.0039,
      "population": 132
    },
    {
      "insee": "65269",
      "nom": "Lescurry",
      "lat": 43.3387,
      "lon": 0.1557,
      "population": 161
    },
    {
      "insee": "65270",
      "nom": "Lespouey",
      "lat": 43.2123,
      "lon": 0.1713,
      "population": 210
    },
    {
      "insee": "65271",
      "nom": "Lézignan",
      "lat": 43.0999,
      "lon": -0.0047,
      "population": 355
    },
    {
      "insee": "65272",
      "nom": "Lhez",
      "lat": 43.2025,
      "lon": 0.1962,
      "population": 76
    },
    {
      "insee": "65273",
      "nom": "Liac",
      "lat": 43.4146,
      "lon": 0.1003,
      "population": 200
    },
    {
      "insee": "65274",
      "nom": "Libaros",
      "lat": 43.2493,
      "lon": 0.3902,
      "population": 133
    },
    {
      "insee": "65275",
      "nom": "Lies",
      "lat": 43.0606,
      "lon": 0.2059,
      "population": 73
    },
    {
      "insee": "65276",
      "nom": "Lizos",
      "lat": 43.2589,
      "lon": 0.1447,
      "population": 109
    },
    {
      "insee": "65277",
      "nom": "Lombrès",
      "lat": 43.0507,
      "lon": 0.511,
      "population": 87
    },
    {
      "insee": "65278",
      "nom": "Lomné",
      "lat": 43.047,
      "lon": 0.3027,
      "population": 39
    },
    {
      "insee": "65279",
      "nom": "Lortet",
      "lat": 43.0378,
      "lon": 0.3768,
      "population": 210
    },
    {
      "insee": "65280",
      "nom": "Loubajac",
      "lat": 43.1421,
      "lon": -0.0869,
      "population": 445
    },
    {
      "insee": "65281",
      "nom": "Loucrup",
      "lat": 43.1173,
      "lon": 0.0687,
      "population": 253
    },
    {
      "insee": "65282",
      "nom": "Loudenvielle",
      "lat": 42.7537,
      "lon": 0.4387,
      "population": 374
    },
    {
      "insee": "65283",
      "nom": "Loudervielle",
      "lat": 42.8041,
      "lon": 0.4381,
      "population": 49
    },
    {
      "insee": "65284",
      "nom": "Louey",
      "lat": 43.1796,
      "lon": 0.0194,
      "population": 1124
    },
    {
      "insee": "65285",
      "nom": "Louit",
      "lat": 43.3003,
      "lon": 0.1622,
      "population": 194
    },
    {
      "insee": "65286",
      "nom": "Lourdes",
      "lat": 43.109,
      "lon": -0.0806,
      "population": 13266
    },
    {
      "insee": "65287",
      "nom": "Loures-Barousse",
      "lat": 43.0265,
      "lon": 0.604,
      "population": 683
    },
    {
      "insee": "65288",
      "nom": "Lubret-Saint-Luc",
      "lat": 43.3157,
      "lon": 0.2967,
      "population": 61
    },
    {
      "insee": "65289",
      "nom": "Luby-Betmont",
      "lat": 43.2951,
      "lon": 0.2947,
      "population": 104
    },
    {
      "insee": "65290",
      "nom": "Luc",
      "lat": 43.1488,
      "lon": 0.1819,
      "population": 171
    },
    {
      "insee": "65291",
      "nom": "Lugagnan",
      "lat": 43.0634,
      "lon": -0.0371,
      "population": 167
    },
    {
      "insee": "65292",
      "nom": "Luquet",
      "lat": 43.2615,
      "lon": -0.1175,
      "population": 426
    },
    {
      "insee": "65293",
      "nom": "Lustar",
      "lat": 43.2691,
      "lon": 0.3419,
      "population": 95
    },
    {
      "insee": "65294",
      "nom": "Lutilhous",
      "lat": 43.1321,
      "lon": 0.3253,
      "population": 210
    },
    {
      "insee": "65295",
      "nom": "Luz-Saint-Sauveur",
      "lat": 42.8357,
      "lon": 0.0175,
      "population": 900
    },
    {
      "insee": "65296",
      "nom": "Madiran",
      "lat": 43.5503,
      "lon": -0.0587,
      "population": 424
    },
    {
      "insee": "65297",
      "nom": "Mansan",
      "lat": 43.3417,
      "lon": 0.1913,
      "population": 39
    },
    {
      "insee": "65298",
      "nom": "Marquerie",
      "lat": 43.26,
      "lon": 0.2107,
      "population": 82
    },
    {
      "insee": "65299",
      "nom": "Marsac",
      "lat": 43.3312,
      "lon": 0.0856,
      "population": 235
    },
    {
      "insee": "65300",
      "nom": "Marsas",
      "lat": 43.053,
      "lon": 0.2215,
      "population": 64
    },
    {
      "insee": "65301",
      "nom": "Marseillan",
      "lat": 43.3027,
      "lon": 0.2129,
      "population": 269
    },
    {
      "insee": "65303",
      "nom": "Mascaras",
      "lat": 43.1949,
      "lon": 0.1742,
      "population": 361
    },
    {
      "insee": "65304",
      "nom": "Maubourguet",
      "lat": 43.4694,
      "lon": 0.0387,
      "population": 2242
    },
    {
      "insee": "65305",
      "nom": "Mauléon-Barousse",
      "lat": 42.9493,
      "lon": 0.581,
      "population": 102
    },
    {
      "insee": "65306",
      "nom": "Mauvezin",
      "lat": 43.1196,
      "lon": 0.2868,
      "population": 243
    },
    {
      "insee": "65307",
      "nom": "Mazères-de-Neste",
      "lat": 43.0798,
      "lon": 0.5432,
      "population": 350
    },
    {
      "insee": "65308",
      "nom": "Mazerolles",
      "lat": 43.3542,
      "lon": 0.2863,
      "population": 113
    },
    {
      "insee": "65309",
      "nom": "Mazouau",
      "lat": 43.0268,
      "lon": 0.402,
      "population": 13
    },
    {
      "insee": "65310",
      "nom": "Mérilheu",
      "lat": 43.101,
      "lon": 0.1786,
      "population": 232
    },
    {
      "insee": "65311",
      "nom": "Mingot",
      "lat": 43.3757,
      "lon": 0.1719,
      "population": 99
    },
    {
      "insee": "65313",
      "nom": "Momères",
      "lat": 43.1751,
      "lon": 0.0767,
      "population": 722
    },
    {
      "insee": "65314",
      "nom": "Monfaucon",
      "lat": 43.4557,
      "lon": 0.1207,
      "population": 198
    },
    {
      "insee": "65315",
      "nom": "Monléon-Magnoac",
      "lat": 43.2305,
      "lon": 0.5201,
      "population": 405
    },
    {
      "insee": "65316",
      "nom": "Monlong",
      "lat": 43.196,
      "lon": 0.468,
      "population": 108
    },
    {
      "insee": "65317",
      "nom": "Mont",
      "lat": 42.8223,
      "lon": 0.4427,
      "population": 37
    },
    {
      "insee": "65318",
      "nom": "Montastruc",
      "lat": 43.2118,
      "lon": 0.3448,
      "population": 237
    },
    {
      "insee": "65319",
      "nom": "Montégut",
      "lat": 43.0497,
      "lon": 0.4984,
      "population": 126
    },
    {
      "insee": "65320",
      "nom": "Montgaillard",
      "lat": 43.1214,
      "lon": 0.1155,
      "population": 816
    },
    {
      "insee": "65321",
      "nom": "Montignac",
      "lat": 43.1828,
      "lon": 0.1497,
      "population": 135
    },
    {
      "insee": "65322",
      "nom": "Montoussé",
      "lat": 43.0605,
      "lon": 0.4089,
      "population": 250
    },
    {
      "insee": "65323",
      "nom": "Montsérié",
      "lat": 43.0499,
      "lon": 0.4367,
      "population": 67
    },
    {
      "insee": "65324",
      "nom": "Moulédous",
      "lat": 43.2205,
      "lon": 0.2353,
      "population": 209
    },
    {
      "insee": "65325",
      "nom": "Moumoulous",
      "lat": 43.3596,
      "lon": 0.245,
      "population": 45
    },
    {
      "insee": "65326",
      "nom": "Mun",
      "lat": 43.2809,
      "lon": 0.2698,
      "population": 74
    },
    {
      "insee": "65327",
      "nom": "Nestier",
      "lat": 43.0603,
      "lon": 0.4769,
      "population": 206
    },
    {
      "insee": "65328",
      "nom": "Neuilh",
      "lat": 43.0754,
      "lon": 0.0709,
      "population": 93
    },
    {
      "insee": "65329",
      "nom": "Nistos",
      "lat": 42.9907,
      "lon": 0.4589,
      "population": 212
    },
    {
      "insee": "65330",
      "nom": "Nouilhan",
      "lat": 43.4257,
      "lon": 0.0437,
      "population": 231
    },
    {
      "insee": "65331",
      "nom": "Odos",
      "lat": 43.1949,
      "lon": 0.0531,
      "population": 3265
    },
    {
      "insee": "65332",
      "nom": "Oléac-Debat",
      "lat": 43.2721,
      "lon": 0.1411,
      "population": 189
    },
    {
      "insee": "65333",
      "nom": "Oléac-Dessus",
      "lat": 43.1593,
      "lon": 0.1978,
      "population": 113
    },
    {
      "insee": "65334",
      "nom": "Omex",
      "lat": 43.0821,
      "lon": -0.0962,
      "population": 217
    },
    {
      "insee": "65335",
      "nom": "Ordizan",
      "lat": 43.1068,
      "lon": 0.1384,
      "population": 513
    },
    {
      "insee": "65336",
      "nom": "Organ",
      "lat": 43.2764,
      "lon": 0.4814,
      "population": 27
    },
    {
      "insee": "65337",
      "nom": "Orieux",
      "lat": 43.2348,
      "lon": 0.2922,
      "population": 110
    },
    {
      "insee": "65338",
      "nom": "Orignac",
      "lat": 43.1236,
      "lon": 0.1695,
      "population": 253
    },
    {
      "insee": "65339",
      "nom": "Orincles",
      "lat": 43.1233,
      "lon": 0.0386,
      "population": 364
    },
    {
      "insee": "65340",
      "nom": "Orleix",
      "lat": 43.2762,
      "lon": 0.1167,
      "population": 1910
    },
    {
      "insee": "65341",
      "nom": "Oroix",
      "lat": 43.2948,
      "lon": -0.0206,
      "population": 99
    },
    {
      "insee": "65342",
      "nom": "Osmets",
      "lat": 43.3078,
      "lon": 0.2625,
      "population": 90
    },
    {
      "insee": "65343",
      "nom": "Ossen",
      "lat": 43.0663,
      "lon": -0.0798,
      "population": 240
    },
    {
      "insee": "65344",
      "nom": "Ossun",
      "lat": 43.1827,
      "lon": -0.0373,
      "population": 2358
    },
    {
      "insee": "65345",
      "nom": "Ossun-ez-Angles",
      "lat": 43.0802,
      "lon": 0.0563,
      "population": 57
    },
    {
      "insee": "65346",
      "nom": "Oueilloux",
      "lat": 43.1778,
      "lon": 0.1788,
      "population": 148
    },
    {
      "insee": "65347",
      "nom": "Ourde",
      "lat": 42.9648,
      "lon": 0.5432,
      "population": 43
    },
    {
      "insee": "65348",
      "nom": "Ourdis-Cotdoussan",
      "lat": 43.0387,
      "lon": 0.0246,
      "population": 41
    },
    {
      "insee": "65349",
      "nom": "Ourdon",
      "lat": 43.031,
      "lon": -0.0139,
      "population": 11
    },
    {
      "insee": "65350",
      "nom": "Oursbelille",
      "lat": 43.2865,
      "lon": 0.0349,
      "population": 1222
    },
    {
      "insee": "65351",
      "nom": "Ousté",
      "lat": 43.047,
      "lon": -0.014,
      "population": 35
    },
    {
      "insee": "65352",
      "nom": "Ouzous",
      "lat": 43.0359,
      "lon": -0.1042,
      "population": 199
    },
    {
      "insee": "65353",
      "nom": "Ozon",
      "lat": 43.1683,
      "lon": 0.2607,
      "population": 239
    },
    {
      "insee": "65354",
      "nom": "Pailhac",
      "lat": 42.9118,
      "lon": 0.3677,
      "population": 85
    },
    {
      "insee": "65355",
      "nom": "Paréac",
      "lat": 43.1159,
      "lon": 0.0202,
      "population": 73
    },
    {
      "insee": "65356",
      "nom": "Péré",
      "lat": 43.1463,
      "lon": 0.2951,
      "population": 61
    },
    {
      "insee": "65357",
      "nom": "Peyraube",
      "lat": 43.2036,
      "lon": 0.256,
      "population": 174
    },
    {
      "insee": "65358",
      "nom": "Peyret-Saint-André",
      "lat": 43.3184,
      "lon": 0.516,
      "population": 69
    },
    {
      "insee": "65359",
      "nom": "Peyriguère",
      "lat": 43.2518,
      "lon": 0.2583,
      "population": 20
    },
    {
      "insee": "65360",
      "nom": "Peyrouse",
      "lat": 43.1102,
      "lon": -0.1145,
      "population": 275
    },
    {
      "insee": "65361",
      "nom": "Peyrun",
      "lat": 43.3308,
      "lon": 0.1908,
      "population": 106
    },
    {
      "insee": "65362",
      "nom": "Pierrefitte-Nestalas",
      "lat": 42.9606,
      "lon": -0.0742,
      "population": 1092
    },
    {
      "insee": "65363",
      "nom": "Pinas",
      "lat": 43.1169,
      "lon": 0.4421,
      "population": 441
    },
    {
      "insee": "65364",
      "nom": "Pintac",
      "lat": 43.2851,
      "lon": -0.0057,
      "population": 22
    },
    {
      "insee": "65366",
      "nom": "Poueyferré",
      "lat": 43.1198,
      "lon": -0.0814,
      "population": 827
    },
    {
      "insee": "65367",
      "nom": "Poumarous",
      "lat": 43.1573,
      "lon": 0.2179,
      "population": 148
    },
    {
      "insee": "65368",
      "nom": "Pouy",
      "lat": 43.2627,
      "lon": 0.5569,
      "population": 40
    },
    {
      "insee": "65369",
      "nom": "Pouyastruc",
      "lat": 43.2693,
      "lon": 0.1715,
      "population": 664
    },
    {
      "insee": "65370",
      "nom": "Pouzac",
      "lat": 43.0788,
      "lon": 0.1304,
      "population": 1099
    },
    {
      "insee": "65371",
      "nom": "Préchac",
      "lat": 42.993,
      "lon": -0.0689,
      "population": 235
    },
    {
      "insee": "65372",
      "nom": "Pujo",
      "lat": 43.3427,
      "lon": 0.0652,
      "population": 671
    },
    {
      "insee": "65373",
      "nom": "Puntous",
      "lat": 43.3062,
      "lon": 0.4559,
      "population": 177
    },
    {
      "insee": "65374",
      "nom": "Puydarrieux",
      "lat": 43.2895,
      "lon": 0.4006,
      "population": 226
    },
    {
      "insee": "65375",
      "nom": "Rabastens-de-Bigorre",
      "lat": 43.386,
      "lon": 0.1579,
      "population": 1483
    },
    {
      "insee": "65376",
      "nom": "Recurt",
      "lat": 43.1972,
      "lon": 0.4324,
      "population": 201
    },
    {
      "insee": "65377",
      "nom": "Réjaumont",
      "lat": 43.1634,
      "lon": 0.4511,
      "population": 146
    },
    {
      "insee": "65378",
      "nom": "Ricaud",
      "lat": 43.1467,
      "lon": 0.2726,
      "population": 72
    },
    {
      "insee": "65379",
      "nom": "Ris",
      "lat": 42.8858,
      "lon": 0.4039,
      "population": 13
    },
    {
      "insee": "65380",
      "nom": "Sabalos",
      "lat": 43.2841,
      "lon": 0.1448,
      "population": 148
    },
    {
      "insee": "65381",
      "nom": "Sabarros",
      "lat": 43.2381,
      "lon": 0.4392,
      "population": 33
    },
    {
      "insee": "65382",
      "nom": "Sacoué",
      "lat": 42.985,
      "lon": 0.5308,
      "population": 85
    },
    {
      "insee": "65383",
      "nom": "Sadournin",
      "lat": 43.3196,
      "lon": 0.4126,
      "population": 190
    },
    {
      "insee": "65384",
      "nom": "Sailhan",
      "lat": 42.8079,
      "lon": 0.3307,
      "population": 172
    },
    {
      "insee": "65385",
      "nom": "Saint-Arroman",
      "lat": 43.0445,
      "lon": 0.4041,
      "population": 98
    },
    {
      "insee": "65386",
      "nom": "Saint-Créac",
      "lat": 43.0611,
      "lon": -0.0201,
      "population": 99
    },
    {
      "insee": "65387",
      "nom": "Saint-Lanne",
      "lat": 43.5866,
      "lon": -0.0656,
      "population": 119
    },
    {
      "insee": "65388",
      "nom": "Saint-Lary-Soulan",
      "lat": 42.7483,
      "lon": 0.266,
      "population": 837
    },
    {
      "insee": "65389",
      "nom": "Saint-Laurent-de-Neste",
      "lat": 43.0919,
      "lon": 0.4799,
      "population": 964
    },
    {
      "insee": "65390",
      "nom": "Saint-Lézer",
      "lat": 43.3585,
      "lon": 0.0278,
      "population": 435
    },
    {
      "insee": "65392",
      "nom": "Saint-Martin",
      "lat": 43.1683,
      "lon": 0.0667,
      "population": 436
    },
    {
      "insee": "65393",
      "nom": "Saint-Pastous",
      "lat": 43.0175,
      "lon": -0.0417,
      "population": 149
    },
    {
      "insee": "65394",
      "nom": "Saint-Paul",
      "lat": 43.0906,
      "lon": 0.5136,
      "population": 324
    },
    {
      "insee": "65395",
      "nom": "Saint-Pé-de-Bigorre",
      "lat": 43.0872,
      "lon": -0.1542,
      "population": 1144
    },
    {
      "insee": "65396",
      "nom": "Saint-Savin",
      "lat": 42.9739,
      "lon": -0.0913,
      "population": 364
    },
    {
      "insee": "65397",
      "nom": "Saint-Sever-de-Rustan",
      "lat": 43.3528,
      "lon": 0.239,
      "population": 156
    },
    {
      "insee": "65391",
      "nom": "Sainte-Marie",
      "lat": 42.9694,
      "lon": 0.6281,
      "population": 58
    },
    {
      "insee": "65398",
      "nom": "Saléchan",
      "lat": 42.9526,
      "lon": 0.6307,
      "population": 242
    },
    {
      "insee": "65399",
      "nom": "Saligos",
      "lat": 42.8975,
      "lon": -0.0145,
      "population": 88
    },
    {
      "insee": "65400",
      "nom": "Salles",
      "lat": 43.0298,
      "lon": -0.1673,
      "population": 258
    },
    {
      "insee": "65401",
      "nom": "Salles-Adour",
      "lat": 43.1868,
      "lon": 0.102,
      "population": 568
    },
    {
      "insee": "65402",
      "nom": "Samuran",
      "lat": 42.9853,
      "lon": 0.6023,
      "population": 27
    },
    {
      "insee": "65403",
      "nom": "Sanous",
      "lat": 43.3784,
      "lon": 0.0044,
      "population": 98
    },
    {
      "insee": "65404",
      "nom": "Sariac-Magnoac",
      "lat": 43.3104,
      "lon": 0.555,
      "population": 162
    },
    {
      "insee": "65405",
      "nom": "Sarlabous",
      "lat": 43.0761,
      "lon": 0.2802,
      "population": 79
    },
    {
      "insee": "65406",
      "nom": "Sarniguet",
      "lat": 43.3184,
      "lon": 0.088,
      "population": 260
    },
    {
      "insee": "65407",
      "nom": "Sarp",
      "lat": 43.0172,
      "lon": 0.577,
      "population": 106
    },
    {
      "insee": "65408",
      "nom": "Sarrancolin",
      "lat": 42.9593,
      "lon": 0.4043,
      "population": 546
    },
    {
      "insee": "65409",
      "nom": "Sarriac-Bigorre",
      "lat": 43.3882,
      "lon": 0.1171,
      "population": 271
    },
    {
      "insee": "65410",
      "nom": "Sarrouilles",
      "lat": 43.2316,
      "lon": 0.1314,
      "population": 551
    },
    {
      "insee": "65411",
      "nom": "Sassis",
      "lat": 42.8776,
      "lon": -0.0174,
      "population": 69
    },
    {
      "insee": "65412",
      "nom": "Sauveterre",
      "lat": 43.4769,
      "lon": 0.1035,
      "population": 157
    },
    {
      "insee": "65413",
      "nom": "Sazos",
      "lat": 42.8613,
      "lon": -0.0451,
      "population": 159
    },
    {
      "insee": "65414",
      "nom": "Ségalas",
      "lat": 43.4083,
      "lon": 0.1286,
      "population": 81
    },
    {
      "insee": "65415",
      "nom": "Ségus",
      "lat": 43.0659,
      "lon": -0.109,
      "population": 268
    },
    {
      "insee": "65416",
      "nom": "Seich",
      "lat": 43.0015,
      "lon": 0.5,
      "population": 89
    },
    {
      "insee": "65417",
      "nom": "Séméac",
      "lat": 43.2248,
      "lon": 0.1108,
      "population": 5236
    },
    {
      "insee": "65418",
      "nom": "Sénac",
      "lat": 43.3582,
      "lon": 0.1873,
      "population": 294
    },
    {
      "insee": "65419",
      "nom": "Sentous",
      "lat": 43.2638,
      "lon": 0.3811,
      "population": 81
    },
    {
      "insee": "65420",
      "nom": "Sère-en-Lavedan",
      "lat": 43.02,
      "lon": -0.1301,
      "population": 86
    },
    {
      "insee": "65421",
      "nom": "Sère-Lanso",
      "lat": 43.068,
      "lon": 0.0162,
      "population": 37
    },
    {
      "insee": "65423",
      "nom": "Sère-Rustaing",
      "lat": 43.2569,
      "lon": 0.2876,
      "population": 127
    },
    {
      "insee": "65422",
      "nom": "Séron",
      "lat": 43.3226,
      "lon": -0.0921,
      "population": 328
    },
    {
      "insee": "65424",
      "nom": "Sers",
      "lat": 42.9101,
      "lon": 0.0785,
      "population": 104
    },
    {
      "insee": "65425",
      "nom": "Siarrouy",
      "lat": 43.3238,
      "lon": 0.0341,
      "population": 453
    },
    {
      "insee": "65426",
      "nom": "Sinzos",
      "lat": 43.2209,
      "lon": 0.2115,
      "population": 141
    },
    {
      "insee": "65427",
      "nom": "Siradan",
      "lat": 42.9708,
      "lon": 0.617,
      "population": 287
    },
    {
      "insee": "65428",
      "nom": "Sireix",
      "lat": 42.9651,
      "lon": -0.1558,
      "population": 60
    },
    {
      "insee": "65429",
      "nom": "Sombrun",
      "lat": 43.4816,
      "lon": -0.0017,
      "population": 194
    },
    {
      "insee": "65430",
      "nom": "Soréac",
      "lat": 43.3129,
      "lon": 0.1583,
      "population": 49
    },
    {
      "insee": "65431",
      "nom": "Sost",
      "lat": 42.8997,
      "lon": 0.557,
      "population": 97
    },
    {
      "insee": "65432",
      "nom": "Soublecause",
      "lat": 43.5345,
      "lon": -0.0281,
      "population": 173
    },
    {
      "insee": "65433",
      "nom": "Soues",
      "lat": 43.2067,
      "lon": 0.0991,
      "population": 2988
    },
    {
      "insee": "65435",
      "nom": "Soulom",
      "lat": 42.9513,
      "lon": -0.0721,
      "population": 293
    },
    {
      "insee": "65436",
      "nom": "Souyeaux",
      "lat": 43.2412,
      "lon": 0.164,
      "population": 296
    },
    {
      "insee": "65437",
      "nom": "Tajan",
      "lat": 43.1785,
      "lon": 0.4517,
      "population": 134
    },
    {
      "insee": "65438",
      "nom": "Talazac",
      "lat": 43.3345,
      "lon": 0.0387,
      "population": 76
    },
    {
      "insee": "65439",
      "nom": "Tarasteix",
      "lat": 43.3174,
      "lon": -0.0055,
      "population": 267
    },
    {
      "insee": "65440",
      "nom": "Tarbes",
      "lat": 43.2387,
      "lon": 0.0653,
      "population": 44399
    },
    {
      "insee": "65441",
      "nom": "Thèbe",
      "lat": 42.9558,
      "lon": 0.5996,
      "population": 97
    },
    {
      "insee": "65442",
      "nom": "Thermes-Magnoac",
      "lat": 43.2986,
      "lon": 0.6055,
      "population": 240
    },
    {
      "insee": "65443",
      "nom": "Thuy",
      "lat": 43.2567,
      "lon": 0.2409,
      "population": 18
    },
    {
      "insee": "65444",
      "nom": "Tibiran-Jaunac",
      "lat": 43.0539,
      "lon": 0.5481,
      "population": 327
    },
    {
      "insee": "65445",
      "nom": "Tilhouse",
      "lat": 43.0841,
      "lon": 0.3181,
      "population": 225
    },
    {
      "insee": "65446",
      "nom": "Tostat",
      "lat": 43.332,
      "lon": 0.1108,
      "population": 550
    },
    {
      "insee": "65447",
      "nom": "Tournay",
      "lat": 43.1843,
      "lon": 0.2455,
      "population": 1362
    },
    {
      "insee": "65448",
      "nom": "Tournous-Darré",
      "lat": 43.2884,
      "lon": 0.3557,
      "population": 76
    },
    {
      "insee": "65449",
      "nom": "Tournous-Devant",
      "lat": 43.2492,
      "lon": 0.4193,
      "population": 87
    },
    {
      "insee": "65450",
      "nom": "Tramezaïgues",
      "lat": 42.7601,
      "lon": 0.2519,
      "population": 30
    },
    {
      "insee": "65451",
      "nom": "Trébons",
      "lat": 43.0952,
      "lon": 0.1071,
      "population": 760
    },
    {
      "insee": "65452",
      "nom": "Trie-sur-Baïse",
      "lat": 43.3144,
      "lon": 0.3639,
      "population": 1006
    },
    {
      "insee": "65453",
      "nom": "Troubat",
      "lat": 42.9752,
      "lon": 0.5802,
      "population": 75
    },
    {
      "insee": "65454",
      "nom": "Trouley-Labarthe",
      "lat": 43.3198,
      "lon": 0.2497,
      "population": 100
    },
    {
      "insee": "65455",
      "nom": "Tuzaguet",
      "lat": 43.0832,
      "lon": 0.4427,
      "population": 440
    },
    {
      "insee": "65456",
      "nom": "Uglas",
      "lat": 43.1417,
      "lon": 0.4405,
      "population": 274
    },
    {
      "insee": "65457",
      "nom": "Ugnouas",
      "lat": 43.3421,
      "lon": 0.1043,
      "population": 87
    },
    {
      "insee": "65458",
      "nom": "Uz",
      "lat": 42.9594,
      "lon": -0.0923,
      "population": 37
    },
    {
      "insee": "65459",
      "nom": "Uzer",
      "lat": 43.0784,
      "lon": 0.1915,
      "population": 103
    },
    {
      "insee": "65460",
      "nom": "Vic-en-Bigorre",
      "lat": 43.3926,
      "lon": 0.0481,
      "population": 4845
    },
    {
      "insee": "65461",
      "nom": "Vidou",
      "lat": 43.2989,
      "lon": 0.3344,
      "population": 79
    },
    {
      "insee": "65462",
      "nom": "Vidouze",
      "lat": 43.4377,
      "lon": -0.0436,
      "population": 230
    },
    {
      "insee": "65463",
      "nom": "Viella",
      "lat": 42.8699,
      "lon": 0.0227,
      "population": 83
    },
    {
      "insee": "65464",
      "nom": "Vielle-Adour",
      "lat": 43.1439,
      "lon": 0.1293,
      "population": 479
    },
    {
      "insee": "65465",
      "nom": "Vielle-Aure",
      "lat": 42.8497,
      "lon": 0.2292,
      "population": 315
    },
    {
      "insee": "65466",
      "nom": "Vielle-Louron",
      "lat": 42.8346,
      "lon": 0.3965,
      "population": 80
    },
    {
      "insee": "65467",
      "nom": "Vier-Bordes",
      "lat": 42.9928,
      "lon": -0.0299,
      "population": 96
    },
    {
      "insee": "65468",
      "nom": "Vieuzos",
      "lat": 43.2545,
      "lon": 0.4477,
      "population": 51
    },
    {
      "insee": "65469",
      "nom": "Viey",
      "lat": 42.8949,
      "lon": 0.0196,
      "population": 17
    },
    {
      "insee": "65470",
      "nom": "Viger",
      "lat": 43.0608,
      "lon": -0.0598,
      "population": 141
    },
    {
      "insee": "65471",
      "nom": "Vignec",
      "lat": 42.819,
      "lon": 0.2842,
      "population": 191
    },
    {
      "insee": "65472",
      "nom": "Villefranque",
      "lat": 43.5005,
      "lon": -0.0019,
      "population": 74
    },
    {
      "insee": "65473",
      "nom": "Villelongue",
      "lat": 42.9389,
      "lon": -0.021,
      "population": 347
    },
    {
      "insee": "65474",
      "nom": "Villembits",
      "lat": 43.2812,
      "lon": 0.3192,
      "population": 109
    },
    {
      "insee": "65475",
      "nom": "Villemur",
      "lat": 43.249,
      "lon": 0.5583,
      "population": 67
    },
    {
      "insee": "65476",
      "nom": "Villenave-près-Béarn",
      "lat": 43.366,
      "lon": -0.0927,
      "population": 70
    },
    {
      "insee": "65477",
      "nom": "Villenave-près-Marsac",
      "lat": 43.3399,
      "lon": 0.0871,
      "population": 110
    },
    {
      "insee": "65478",
      "nom": "Viscos",
      "lat": 42.9172,
      "lon": -0.0528,
      "population": 35
    },
    {
      "insee": "65479",
      "nom": "Visker",
      "lat": 43.1387,
      "lon": 0.0674,
      "population": 362
    }
  ]
}