{
  "country": "FR",
  "departmentCode": "12",
  "label": "Departement 12",
  "communes": [
    {
      "insee": "12001",
      "nom": "Agen-d'Aveyron",
      "lat": 44.3509,
      "lon": 2.6915,
      "population": 1116
    },
    {
      "insee": "12002",
      "nom": "Aguessac",
      "lat": 44.1584,
      "lon": 3.0669,
      "population": 929
    },
    {
      "insee": "12004",
      "nom": "Almont-les-Junies",
      "lat": 44.6007,
      "lon": 2.3172,
      "population": 437
    },
    {
      "insee": "12006",
      "nom": "Alrance",
      "lat": 44.1396,
      "lon": 2.6756,
      "population": 335
    },
    {
      "insee": "12007",
      "nom": "Ambeyrac",
      "lat": 44.4919,
      "lon": 1.9356,
      "population": 184
    },
    {
      "insee": "12008",
      "nom": "Anglars-Saint-Félix",
      "lat": 44.4143,
      "lon": 2.2352,
      "population": 930
    },
    {
      "insee": "12223",
      "nom": "Argences en Aubrac",
      "lat": 44.7813,
      "lon": 2.8098,
      "population": 1581
    },
    {
      "insee": "12009",
      "nom": "Arnac-sur-Dourdou",
      "lat": 43.7189,
      "lon": 2.9484,
      "population": 47
    },
    {
      "insee": "12010",
      "nom": "Arques",
      "lat": 44.32,
      "lon": 2.8063,
      "population": 159
    },
    {
      "insee": "12011",
      "nom": "Arvieu",
      "lat": 44.1908,
      "lon": 2.6704,
      "population": 774
    },
    {
      "insee": "12012",
      "nom": "Asprières",
      "lat": 44.5517,
      "lon": 2.1412,
      "population": 753
    },
    {
      "insee": "12013",
      "nom": "Aubin",
      "lat": 44.5309,
      "lon": 2.2531,
      "population": 3444
    },
    {
      "insee": "12015",
      "nom": "Auriac-Lagast",
      "lat": 44.1421,
      "lon": 2.6002,
      "population": 228
    },
    {
      "insee": "12016",
      "nom": "Auzits",
      "lat": 44.4954,
      "lon": 2.32,
      "population": 824
    },
    {
      "insee": "12017",
      "nom": "Ayssènes",
      "lat": 44.0916,
      "lon": 2.7619,
      "population": 225
    },
    {
      "insee": "12018",
      "nom": "Balaguier-d'Olt",
      "lat": 44.5188,
      "lon": 1.9778,
      "population": 179
    },
    {
      "insee": "12019",
      "nom": "Balaguier-sur-Rance",
      "lat": 43.8945,
      "lon": 2.5761,
      "population": 90
    },
    {
      "insee": "12056",
      "nom": "Baraqueville",
      "lat": 44.2824,
      "lon": 2.4527,
      "population": 3173
    },
    {
      "insee": "12024",
      "nom": "Belcastel",
      "lat": 44.397,
      "lon": 2.331,
      "population": 189
    },
    {
      "insee": "12025",
      "nom": "Belmont-sur-Rance",
      "lat": 43.8248,
      "lon": 2.7517,
      "population": 1001
    },
    {
      "insee": "12026",
      "nom": "Bertholène",
      "lat": 44.3904,
      "lon": 2.7926,
      "population": 1043
    },
    {
      "insee": "12027",
      "nom": "Bessuéjouls",
      "lat": 44.5168,
      "lon": 2.7104,
      "population": 222
    },
    {
      "insee": "12028",
      "nom": "Boisse-Penchot",
      "lat": 44.582,
      "lon": 2.2129,
      "population": 514
    },
    {
      "insee": "12029",
      "nom": "Bor-et-Bar",
      "lat": 44.1971,
      "lon": 2.0822,
      "population": 206
    },
    {
      "insee": "12030",
      "nom": "Bouillac",
      "lat": 44.5745,
      "lon": 2.1768,
      "population": 375
    },
    {
      "insee": "12031",
      "nom": "Bournazel",
      "lat": 44.4615,
      "lon": 2.3054,
      "population": 327
    },
    {
      "insee": "12032",
      "nom": "Boussac",
      "lat": 44.2961,
      "lon": 2.3846,
      "population": 611
    },
    {
      "insee": "12033",
      "nom": "Bozouls",
      "lat": 44.4724,
      "lon": 2.7142,
      "population": 3001
    },
    {
      "insee": "12034",
      "nom": "Brandonnet",
      "lat": 44.3842,
      "lon": 2.1383,
      "population": 287
    },
    {
      "insee": "12035",
      "nom": "Brasc",
      "lat": 43.9803,
      "lon": 2.5777,
      "population": 170
    },
    {
      "insee": "12036",
      "nom": "Brommat",
      "lat": 44.8179,
      "lon": 2.7081,
      "population": 628
    },
    {
      "insee": "12037",
      "nom": "Broquiès",
      "lat": 44.024,
      "lon": 2.7155,
      "population": 613
    },
    {
      "insee": "12038",
      "nom": "Brousse-le-Château",
      "lat": 44.0078,
      "lon": 2.6401,
      "population": 164
    },
    {
      "insee": "12039",
      "nom": "Brusque",
      "lat": 43.7645,
      "lon": 2.9513,
      "population": 258
    },
    {
      "insee": "12041",
      "nom": "Cabanès",
      "lat": 44.193,
      "lon": 2.2922,
      "population": 284
    },
    {
      "insee": "12042",
      "nom": "Calmels-et-le-Viala",
      "lat": 43.9577,
      "lon": 2.7583,
      "population": 182
    },
    {
      "insee": "12043",
      "nom": "Calmont",
      "lat": 44.2643,
      "lon": 2.5256,
      "population": 2192
    },
    {
      "insee": "12044",
      "nom": "Camarès",
      "lat": 43.8231,
      "lon": 2.8807,
      "population": 1030
    },
    {
      "insee": "12045",
      "nom": "Camboulazet",
      "lat": 44.2244,
      "lon": 2.4462,
      "population": 412
    },
    {
      "insee": "12046",
      "nom": "Camjac",
      "lat": 44.1739,
      "lon": 2.3985,
      "population": 576
    },
    {
      "insee": "12047",
      "nom": "Campagnac",
      "lat": 44.4033,
      "lon": 3.0889,
      "population": 431
    },
    {
      "insee": "12048",
      "nom": "Campouriez",
      "lat": 44.6814,
      "lon": 2.6165,
      "population": 322
    },
    {
      "insee": "12049",
      "nom": "Campuac",
      "lat": 44.5656,
      "lon": 2.5808,
      "population": 449
    },
    {
      "insee": "12050",
      "nom": "Canet-de-Salars",
      "lat": 44.2392,
      "lon": 2.7379,
      "population": 451
    },
    {
      "insee": "12051",
      "nom": "Cantoin",
      "lat": 44.8354,
      "lon": 2.8261,
      "population": 312
    },
    {
      "insee": "12052",
      "nom": "Capdenac-Gare",
      "lat": 44.5604,
      "lon": 2.0661,
      "population": 4440
    },
    {
      "insee": "12057",
      "nom": "Cassagnes-Bégonhès",
      "lat": 44.1738,
      "lon": 2.5175,
      "population": 952
    },
    {
      "insee": "12058",
      "nom": "Cassuéjouls",
      "lat": 44.7233,
      "lon": 2.811,
      "population": 107
    },
    {
      "insee": "12059",
      "nom": "Castanet",
      "lat": 44.2882,
      "lon": 2.3085,
      "population": 533
    },
    {
      "insee": "12060",
      "nom": "Castelmary",
      "lat": 44.1732,
      "lon": 2.2389,
      "population": 121
    },
    {
      "insee": "12061",
      "nom": "Castelnau-de-Mandailles",
      "lat": 44.5309,
      "lon": 2.8906,
      "population": 565
    },
    {
      "insee": "12062",
      "nom": "Castelnau-Pégayrols",
      "lat": 44.1456,
      "lon": 2.9304,
      "population": 344
    },
    {
      "insee": "12257",
      "nom": "Causse-et-Diège",
      "lat": 44.5249,
      "lon": 2.0322,
      "population": 760
    },
    {
      "insee": "12065",
      "nom": "Centrès",
      "lat": 44.1715,
      "lon": 2.433,
      "population": 462
    },
    {
      "insee": "12066",
      "nom": "Clairvaux-d'Aveyron",
      "lat": 44.4008,
      "lon": 2.4021,
      "population": 1158
    },
    {
      "insee": "12068",
      "nom": "Colombiès",
      "lat": 44.3443,
      "lon": 2.3262,
      "population": 884
    },
    {
      "insee": "12069",
      "nom": "Combret",
      "lat": 43.8333,
      "lon": 2.6871,
      "population": 263
    },
    {
      "insee": "12070",
      "nom": "Compeyre",
      "lat": 44.1771,
      "lon": 3.1026,
      "population": 526
    },
    {
      "insee": "12071",
      "nom": "Compolibat",
      "lat": 44.3754,
      "lon": 2.1836,
      "population": 335
    },
    {
      "insee": "12072",
      "nom": "Comprégnac",
      "lat": 44.0966,
      "lon": 2.9806,
      "population": 227
    },
    {
      "insee": "12073",
      "nom": "Comps-la-Grand-Ville",
      "lat": 44.2269,
      "lon": 2.5663,
      "population": 636
    },
    {
      "insee": "12074",
      "nom": "Condom-d'Aubrac",
      "lat": 44.6032,
      "lon": 2.8836,
      "population": 285
    },
    {
      "insee": "12075",
      "nom": "Connac",
      "lat": 44.0224,
      "lon": 2.5925,
      "population": 99
    },
    {
      "insee": "12218",
      "nom": "Conques-en-Rouergue",
      "lat": 44.5817,
      "lon": 2.3895,
      "population": 1540
    },
    {
      "insee": "12077",
      "nom": "Cornus",
      "lat": 43.8895,
      "lon": 3.2013,
      "population": 512
    },
    {
      "insee": "12079",
      "nom": "Coubisou",
      "lat": 44.5807,
      "lon": 2.735,
      "population": 462
    },
    {
      "insee": "12080",
      "nom": "Coupiac",
      "lat": 43.9367,
      "lon": 2.5888,
      "population": 353
    },
    {
      "insee": "12083",
      "nom": "Cransac",
      "lat": 44.5175,
      "lon": 2.2901,
      "population": 1482
    },
    {
      "insee": "12084",
      "nom": "Creissels",
      "lat": 44.0621,
      "lon": 3.0572,
      "population": 1568
    },
    {
      "insee": "12085",
      "nom": "Crespin",
      "lat": 44.1559,
      "lon": 2.2447,
      "population": 319
    },
    {
      "insee": "12307",
      "nom": "Curan",
      "lat": 44.1999,
      "lon": 2.8642,
      "population": 307
    },
    {
      "insee": "12088",
      "nom": "Curières",
      "lat": 44.6398,
      "lon": 2.8954,
      "population": 215
    },
    {
      "insee": "12089",
      "nom": "Decazeville",
      "lat": 44.5686,
      "lon": 2.2563,
      "population": 5020
    },
    {
      "insee": "12090",
      "nom": "Druelle Balsac",
      "lat": 44.3782,
      "lon": 2.4721,
      "population": 3187
    },
    {
      "insee": "12091",
      "nom": "Drulhe",
      "lat": 44.4524,
      "lon": 2.1361,
      "population": 448
    },
    {
      "insee": "12092",
      "nom": "Durenque",
      "lat": 44.0999,
      "lon": 2.6206,
      "population": 515
    },
    {
      "insee": "12094",
      "nom": "Entraygues-sur-Truyère",
      "lat": 44.6604,
      "lon": 2.5853,
      "population": 964
    },
    {
      "insee": "12095",
      "nom": "Escandolières",
      "lat": 44.4727,
      "lon": 2.3515,
      "population": 212
    },
    {
      "insee": "12096",
      "nom": "Espalion",
      "lat": 44.5191,
      "lon": 2.7624,
      "population": 4605
    },
    {
      "insee": "12097",
      "nom": "Espeyrac",
      "lat": 44.6137,
      "lon": 2.5164,
      "population": 247
    },
    {
      "insee": "12098",
      "nom": "Estaing",
      "lat": 44.5764,
      "lon": 2.6813,
      "population": 502
    },
    {
      "insee": "12099",
      "nom": "Fayet",
      "lat": 43.8058,
      "lon": 2.9703,
      "population": 235
    },
    {
      "insee": "12100",
      "nom": "Firmi",
      "lat": 44.5451,
      "lon": 2.3268,
      "population": 2318
    },
    {
      "insee": "12101",
      "nom": "Flagnac",
      "lat": 44.5924,
      "lon": 2.2631,
      "population": 1084
    },
    {
      "insee": "12102",
      "nom": "Flavin",
      "lat": 44.2871,
      "lon": 2.631,
      "population": 2392
    },
    {
      "insee": "12103",
      "nom": "Florentin-la-Capelle",
      "lat": 44.6387,
      "lon": 2.6424,
      "population": 286
    },
    {
      "insee": "12104",
      "nom": "Foissac",
      "lat": 44.5028,
      "lon": 2.016,
      "population": 454
    },
    {
      "insee": "12155",
      "nom": "Fondamente",
      "lat": 43.8574,
      "lon": 3.1226,
      "population": 318
    },
    {
      "insee": "12106",
      "nom": "Gabriac",
      "lat": 44.4636,
      "lon": 2.8061,
      "population": 561
    },
    {
      "insee": "12107",
      "nom": "Gaillac-d'Aveyron",
      "lat": 44.3622,
      "lon": 2.9059,
      "population": 322
    },
    {
      "insee": "12108",
      "nom": "Galgan",
      "lat": 44.5037,
      "lon": 2.1814,
      "population": 363
    },
    {
      "insee": "12109",
      "nom": "Gissac",
      "lat": 43.8702,
      "lon": 2.8996,
      "population": 98
    },
    {
      "insee": "12110",
      "nom": "Golinhac",
      "lat": 44.5972,
      "lon": 2.5921,
      "population": 370
    },
    {
      "insee": "12111",
      "nom": "Goutrens",
      "lat": 44.4377,
      "lon": 2.3651,
      "population": 492
    },
    {
      "insee": "12113",
      "nom": "Gramond",
      "lat": 44.2623,
      "lon": 2.3723,
      "population": 551
    },
    {
      "insee": "12116",
      "nom": "Huparlac",
      "lat": 44.7183,
      "lon": 2.7467,
      "population": 250
    },
    {
      "insee": "12115",
      "nom": "L'Hospitalet-du-Larzac",
      "lat": 43.9755,
      "lon": 3.2074,
      "population": 348
    },
    {
      "insee": "12022",
      "nom": "La Bastide-Pradines",
      "lat": 44.0098,
      "lon": 3.0549,
      "population": 122
    },
    {
      "insee": "12023",
      "nom": "La Bastide-Solages",
      "lat": 43.9488,
      "lon": 2.5243,
      "population": 117
    },
    {
      "insee": "12053",
      "nom": "La Capelle-Balaguier",
      "lat": 44.4402,
      "lon": 1.9266,
      "population": 346
    },
    {
      "insee": "12054",
      "nom": "La Capelle-Bleys",
      "lat": 44.305,
      "lon": 2.1758,
      "population": 366
    },
    {
      "insee": "12055",
      "nom": "La Capelle-Bonance",
      "lat": 44.4515,
      "lon": 3.0258,
      "population": 95
    },
    {
      "insee": "12063",
      "nom": "La Cavalerie",
      "lat": 44.0148,
      "lon": 3.1746,
      "population": 2223
    },
    {
      "insee": "12082",
      "nom": "La Couvertoirade",
      "lat": 43.9307,
      "lon": 3.2848,
      "population": 210
    },
    {
      "insee": "12086",
      "nom": "La Cresse",
      "lat": 44.169,
      "lon": 3.1621,
      "population": 333
    },
    {
      "insee": "12105",
      "nom": "La Fouillade",
      "lat": 44.2346,
      "lon": 2.0517,
      "population": 1128
    },
    {
      "insee": "12131",
      "nom": "La Loubière",
      "lat": 44.3889,
      "lon": 2.6588,
      "population": 1573
    },
    {
      "insee": "12204",
      "nom": "La Roque-Sainte-Marguerite",
      "lat": 44.1029,
      "lon": 3.2517,
      "population": 182
    },
    {
      "insee": "12205",
      "nom": "La Rouquette",
      "lat": 44.311,
      "lon": 1.9764,
      "population": 777
    },
    {
      "insee": "12258",
      "nom": "La Salvetat-Peyralès",
      "lat": 44.2228,
      "lon": 2.1986,
      "population": 1004
    },
    {
      "insee": "12267",
      "nom": "La Selve",
      "lat": 44.1072,
      "lon": 2.5356,
      "population": 562
    },
    {
      "insee": "12269",
      "nom": "La Serre",
      "lat": 43.8959,
      "lon": 2.6537,
      "population": 124
    },
    {
      "insee": "12118",
      "nom": "Lacroix-Barrez",
      "lat": 44.769,
      "lon": 2.634,
      "population": 531
    },
    {
      "insee": "12119",
      "nom": "Laguiole",
      "lat": 44.6936,
      "lon": 2.8679,
      "population": 1207
    },
    {
      "insee": "12120",
      "nom": "Laissac-Sévérac l'Église",
      "lat": 44.3692,
      "lon": 2.8352,
      "population": 2141
    },
    {
      "insee": "12121",
      "nom": "Lanuéjouls",
      "lat": 44.42,
      "lon": 2.1615,
      "population": 779
    },
    {
      "insee": "12122",
      "nom": "Lapanouse-de-Cernon",
      "lat": 44.0088,
      "lon": 3.0947,
      "population": 119
    },
    {
      "insee": "12124",
      "nom": "Lassouts",
      "lat": 44.484,
      "lon": 2.8509,
      "population": 318
    },
    {
      "insee": "12125",
      "nom": "Laval-Roquecezière",
      "lat": 43.8122,
      "lon": 2.6336,
      "population": 303
    },
    {
      "insee": "12021",
      "nom": "Le Bas Ségala",
      "lat": 44.3056,
      "lon": 2.1369,
      "population": 1608
    },
    {
      "insee": "12064",
      "nom": "Le Cayrol",
      "lat": 44.5866,
      "lon": 2.7865,
      "population": 243
    },
    {
      "insee": "12067",
      "nom": "Le Clapier",
      "lat": 43.8307,
      "lon": 3.1792,
      "population": 96
    },
    {
      "insee": "12093",
      "nom": "Le Fel",
      "lat": 44.67,
      "lon": 2.5153,
      "population": 195
    },
    {
      "insee": "12146",
      "nom": "Le Monastère",
      "lat": 44.3315,
      "lon": 2.59,
      "population": 2295
    },
    {
      "insee": "12172",
      "nom": "Le Nayrac",
      "lat": 44.6012,
      "lon": 2.6765,
      "population": 555
    },
    {
      "insee": "12284",
      "nom": "Le Truel",
      "lat": 44.0549,
      "lon": 2.7511,
      "population": 350
    },
    {
      "insee": "12297",
      "nom": "Le Vibal",
      "lat": 44.3166,
      "lon": 2.7286,
      "population": 519
    },
    {
      "insee": "12127",
      "nom": "Lédergues",
      "lat": 44.0856,
      "lon": 2.4442,
      "population": 677
    },
    {
      "insee": "12003",
      "nom": "Les Albres",
      "lat": 44.5401,
      "lon": 2.1801,
      "population": 346
    },
    {
      "insee": "12078",
      "nom": "Les Costes-Gozon",
      "lat": 44.0136,
      "lon": 2.7968,
      "population": 163
    },
    {
      "insee": "12128",
      "nom": "Lescure-Jaoul",
      "lat": 44.2262,
      "lon": 2.1471,
      "population": 229
    },
    {
      "insee": "12129",
      "nom": "Lestrade-et-Thouels",
      "lat": 44.0516,
      "lon": 2.6403,
      "population": 440
    },
    {
      "insee": "12130",
      "nom": "Livinhac-le-Haut",
      "lat": 44.5993,
      "lon": 2.2118,
      "population": 1091
    },
    {
      "insee": "12133",
      "nom": "Luc-la-Primaube",
      "lat": 44.3046,
      "lon": 2.5379,
      "population": 6046
    },
    {
      "insee": "12134",
      "nom": "Lugan",
      "lat": 44.4858,
      "lon": 2.2592,
      "population": 356
    },
    {
      "insee": "12135",
      "nom": "Lunac",
      "lat": 44.239,
      "lon": 2.1037,
      "population": 435
    },
    {
      "insee": "12136",
      "nom": "Maleville",
      "lat": 44.3973,
      "lon": 2.1118,
      "population": 967
    },
    {
      "insee": "12137",
      "nom": "Manhac",
      "lat": 44.2576,
      "lon": 2.4782,
      "population": 877
    },
    {
      "insee": "12138",
      "nom": "Marcillac-Vallon",
      "lat": 44.4776,
      "lon": 2.4612,
      "population": 1711
    },
    {
      "insee": "12139",
      "nom": "Marnhagues-et-Latour",
      "lat": 43.8814,
      "lon": 3.0453,
      "population": 147
    },
    {
      "insee": "12140",
      "nom": "Martiel",
      "lat": 44.3763,
      "lon": 1.9186,
      "population": 1008
    },
    {
      "insee": "12141",
      "nom": "Martrin",
      "lat": 43.928,
      "lon": 2.6389,
      "population": 241
    },
    {
      "insee": "12142",
      "nom": "Mayran",
      "lat": 44.3912,
      "lon": 2.3738,
      "population": 611
    },
    {
      "insee": "12143",
      "nom": "Mélagues",
      "lat": 43.7307,
      "lon": 3.0136,
      "population": 53
    },
    {
      "insee": "12144",
      "nom": "Meljac",
      "lat": 44.1326,
      "lon": 2.4316,
      "population": 141
    },
    {
      "insee": "12145",
      "nom": "Millau",
      "lat": 44.0982,
      "lon": 3.1176,
      "population": 22044
    },
    {
      "insee": "12147",
      "nom": "Montagnol",
      "lat": 43.828,
      "lon": 3.0212,
      "population": 149
    },
    {
      "insee": "12148",
      "nom": "Montbazens",
      "lat": 44.48,
      "lon": 2.214,
      "population": 1446
    },
    {
      "insee": "12149",
      "nom": "Montclar",
      "lat": 43.9805,
      "lon": 2.6247,
      "population": 133
    },
    {
      "insee": "12150",
      "nom": "Monteils",
      "lat": 44.2666,
      "lon": 1.9874,
      "population": 461
    },
    {
      "insee": "12151",
      "nom": "Montézic",
      "lat": 44.7206,
      "lon": 2.6469,
      "population": 226
    },
    {
      "insee": "12152",
      "nom": "Montfranc",
      "lat": 43.8407,
      "lon": 2.5802,
      "population": 130
    },
    {
      "insee": "12153",
      "nom": "Montjaux",
      "lat": 44.0984,
      "lon": 2.9045,
      "population": 436
    },
    {
      "insee": "12154",
      "nom": "Montlaur",
      "lat": 43.8673,
      "lon": 2.8339,
      "population": 663
    },
    {
      "insee": "12156",
      "nom": "Montpeyroux",
      "lat": 44.6324,
      "lon": 2.7769,
      "population": 518
    },
    {
      "insee": "12157",
      "nom": "Montrozier",
      "lat": 44.3859,
      "lon": 2.7088,
      "population": 1717
    },
    {
      "insee": "12158",
      "nom": "Montsalès",
      "lat": 44.4848,
      "lon": 1.9784,
      "population": 319
    },
    {
      "insee": "12159",
      "nom": "Morlhon-le-Haut",
      "lat": 44.3245,
      "lon": 2.0785,
      "population": 555
    },
    {
      "insee": "12160",
      "nom": "Mostuéjouls",
      "lat": 44.2333,
      "lon": 3.1842,
      "population": 333
    },
    {
      "insee": "12192",
      "nom": "Mounes-Prohencoux",
      "lat": 43.7953,
      "lon": 2.8177,
      "population": 193
    },
    {
      "insee": "12161",
      "nom": "Mouret",
      "lat": 44.5154,
      "lon": 2.5174,
      "population": 560
    },
    {
      "insee": "12162",
      "nom": "Moyrazès",
      "lat": 44.328,
      "lon": 2.429,
      "population": 1095
    },
    {
      "insee": "12164",
      "nom": "Mur-de-Barrez",
      "lat": 44.8705,
      "lon": 2.685,
      "population": 693
    },
    {
      "insee": "12163",
      "nom": "Murasson",
      "lat": 43.7606,
      "lon": 2.7767,
      "population": 204
    },
    {
      "insee": "12165",
      "nom": "Muret-le-Château",
      "lat": 44.495,
      "lon": 2.5702,
      "population": 350
    },
    {
      "insee": "12166",
      "nom": "Murols",
      "lat": 44.7584,
      "lon": 2.5798,
      "population": 97
    },
    {
      "insee": "12167",
      "nom": "Najac",
      "lat": 44.2087,
      "lon": 1.9584,
      "population": 771
    },
    {
      "insee": "12168",
      "nom": "Nant",
      "lat": 44.0204,
      "lon": 3.2887,
      "population": 1026
    },
    {
      "insee": "12169",
      "nom": "Naucelle",
      "lat": 44.1863,
      "lon": 2.3468,
      "population": 2012
    },
    {
      "insee": "12170",
      "nom": "Naussac",
      "lat": 44.5041,
      "lon": 2.0946,
      "population": 434
    },
    {
      "insee": "12171",
      "nom": "Nauviale",
      "lat": 44.5119,
      "lon": 2.4313,
      "population": 577
    },
    {
      "insee": "12174",
      "nom": "Olemps",
      "lat": 44.3391,
      "lon": 2.5504,
      "population": 3559
    },
    {
      "insee": "12175",
      "nom": "Ols-et-Rinhodes",
      "lat": 44.4618,
      "lon": 1.9473,
      "population": 158
    },
    {
      "insee": "12176",
      "nom": "Onet-le-Château",
      "lat": 44.3824,
      "lon": 2.5614,
      "population": 12080
    },
    {
      "insee": "12177",
      "nom": "Palmas d'Aveyron",
      "lat": 44.4231,
      "lon": 2.8588,
      "population": 1026
    },
    {
      "insee": "12178",
      "nom": "Paulhe",
      "lat": 44.1487,
      "lon": 3.1141,
      "population": 358
    },
    {
      "insee": "12179",
      "nom": "Peux-et-Couffouleux",
      "lat": 43.766,
      "lon": 2.877,
      "population": 86
    },
    {
      "insee": "12180",
      "nom": "Peyreleau",
      "lat": 44.174,
      "lon": 3.2066,
      "population": 69
    },
    {
      "insee": "12181",
      "nom": "Peyrusse-le-Roc",
      "lat": 44.5002,
      "lon": 2.1342,
      "population": 197
    },
    {
      "insee": "12182",
      "nom": "Pierrefiche",
      "lat": 44.4347,
      "lon": 2.9233,
      "population": 303
    },
    {
      "insee": "12183",
      "nom": "Plaisance",
      "lat": 43.9283,
      "lon": 2.5626,
      "population": 219
    },
    {
      "insee": "12184",
      "nom": "Pomayrols",
      "lat": 44.4898,
      "lon": 3.0563,
      "population": 116
    },
    {
      "insee": "12185",
      "nom": "Pont-de-Salars",
      "lat": 44.2771,
      "lon": 2.7171,
      "population": 1623
    },
    {
      "insee": "12186",
      "nom": "Pousthomy",
      "lat": 43.8489,
      "lon": 2.5972,
      "population": 212
    },
    {
      "insee": "12187",
      "nom": "Prades-d'Aubrac",
      "lat": 44.541,
      "lon": 2.9714,
      "population": 278
    },
    {
      "insee": "12188",
      "nom": "Prades-Salars",
      "lat": 44.2461,
      "lon": 2.7901,
      "population": 311
    },
    {
      "insee": "12189",
      "nom": "Pradinas",
      "lat": 44.2485,
      "lon": 2.2676,
      "population": 369
    },
    {
      "insee": "12190",
      "nom": "Prévinquières",
      "lat": 44.3683,
      "lon": 2.244,
      "population": 269
    },
    {
      "insee": "12191",
      "nom": "Privezac",
      "lat": 44.4103,
      "lon": 2.1976,
      "population": 350
    },
    {
      "insee": "12193",
      "nom": "Pruines",
      "lat": 44.5337,
      "lon": 2.4875,
      "population": 289
    },
    {
      "insee": "12194",
      "nom": "Quins",
      "lat": 44.2333,
      "lon": 2.375,
      "population": 908
    },
    {
      "insee": "12195",
      "nom": "Rebourguil",
      "lat": 43.8853,
      "lon": 2.753,
      "population": 296
    },
    {
      "insee": "12197",
      "nom": "Réquista",
      "lat": 44.0292,
      "lon": 2.5526,
      "population": 1924
    },
    {
      "insee": "12198",
      "nom": "Rieupeyroux",
      "lat": 44.3038,
      "lon": 2.2347,
      "population": 1965
    },
    {
      "insee": "12199",
      "nom": "Rignac",
      "lat": 44.4045,
      "lon": 2.2944,
      "population": 2000
    },
    {
      "insee": "12200",
      "nom": "Rivière-sur-Tarn",
      "lat": 44.2136,
      "lon": 3.1302,
      "population": 1069
    },
    {
      "insee": "12201",
      "nom": "Rodelle",
      "lat": 44.4792,
      "lon": 2.627,
      "population": 1122
    },
    {
      "insee": "12202",
      "nom": "Rodez",
      "lat": 44.3591,
      "lon": 2.5699,
      "population": 23981
    },
    {
      "insee": "12203",
      "nom": "Roquefort-sur-Soulzon",
      "lat": 43.9685,
      "lon": 2.9826,
      "population": 475
    },
    {
      "insee": "12206",
      "nom": "Roussennac",
      "lat": 44.4493,
      "lon": 2.2491,
      "population": 618
    },
    {
      "insee": "12207",
      "nom": "Rullac-Saint-Cirq",
      "lat": 44.1209,
      "lon": 2.4755,
      "population": 340
    },
    {
      "insee": "12224",
      "nom": "Saint Geniez d'Olt et d'Aubrac",
      "lat": 44.5112,
      "lon": 3.0077,
      "population": 2142
    },
    {
      "insee": "12208",
      "nom": "Saint-Affrique",
      "lat": 43.9571,
      "lon": 2.8533,
      "population": 7941
    },
    {
      "insee": "12209",
      "nom": "Saint-Amans-des-Cots",
      "lat": 44.6905,
      "lon": 2.6839,
      "population": 709
    },
    {
      "insee": "12210",
      "nom": "Saint-André-de-Najac",
      "lat": 44.1797,
      "lon": 2.0209,
      "population": 456
    },
    {
      "insee": "12211",
      "nom": "Saint-André-de-Vézines",
      "lat": 44.1476,
      "lon": 3.2731,
      "population": 130
    },
    {
      "insee": "12212",
      "nom": "Saint-Beaulize",
      "lat": 43.9085,
      "lon": 3.0926,
      "population": 107
    },
    {
      "insee": "12213",
      "nom": "Saint-Beauzély",
      "lat": 44.1676,
      "lon": 2.9574,
      "population": 550
    },
    {
      "insee": "12214",
      "nom": "Saint-Chély-d'Aubrac",
      "lat": 44.5912,
      "lon": 2.9419,
      "population": 517
    },
    {
      "insee": "12215",
      "nom": "Saint-Christophe-Vallon",
      "lat": 44.4785,
      "lon": 2.3927,
      "population": 1186
    },
    {
      "insee": "12216",
      "nom": "Saint-Côme-d'Olt",
      "lat": 44.5327,
      "lon": 2.8195,
      "population": 1449
    },
    {
      "insee": "12221",
      "nom": "Saint-Félix-de-Lunel",
      "lat": 44.5694,
      "lon": 2.5113,
      "population": 387
    },
    {
      "insee": "12222",
      "nom": "Saint-Félix-de-Sorgues",
      "lat": 43.8823,
      "lon": 2.9894,
      "population": 204
    },
    {
      "insee": "12225",
      "nom": "Saint-Georges-de-Luzençon",
      "lat": 44.0567,
      "lon": 2.9875,
      "population": 1565
    },
    {
      "insee": "12226",
      "nom": "Saint-Hippolyte",
      "lat": 44.7319,
      "lon": 2.5769,
      "population": 428
    },
    {
      "insee": "12227",
      "nom": "Saint-Igest",
      "lat": 44.4459,
      "lon": 2.0904,
      "population": 188
    },
    {
      "insee": "12228",
      "nom": "Saint-Izaire",
      "lat": 43.9701,
      "lon": 2.7006,
      "population": 314
    },
    {
      "insee": "12229",
      "nom": "Saint-Jean-d'Alcapiès",
      "lat": 43.9507,
      "lon": 2.9647,
      "population": 219
    },
    {
      "insee": "12230",
      "nom": "Saint-Jean-Delnous",
      "lat": 44.0391,
      "lon": 2.4912,
      "population": 391
    },
    {
      "insee": "12231",
      "nom": "Saint-Jean-du-Bruel",
      "lat": 44.024,
      "lon": 3.3904,
      "population": 639
    },
    {
      "insee": "12232",
      "nom": "Saint-Jean-et-Saint-Paul",
      "lat": 43.9291,
      "lon": 3.0255,
      "population": 282
    },
    {
      "insee": "12233",
      "nom": "Saint-Juéry",
      "lat": 43.9202,
      "lon": 2.6972,
      "population": 256
    },
    {
      "insee": "12235",
      "nom": "Saint-Just-sur-Viaur",
      "lat": 44.1205,
      "lon": 2.3874,
      "population": 216
    },
    {
      "insee": "12237",
      "nom": "Saint-Laurent-d'Olt",
      "lat": 44.4464,
      "lon": 3.0946,
      "population": 623
    },
    {
      "insee": "12236",
      "nom": "Saint-Laurent-de-Lévézou",
      "lat": 44.2124,
      "lon": 2.9422,
      "population": 161
    },
    {
      "insee": "12238",
      "nom": "Saint-Léons",
      "lat": 44.2224,
      "lon": 2.9833,
      "population": 424
    },
    {
      "insee": "12239",
      "nom": "Saint-Martin-de-Lenne",
      "lat": 44.4259,
      "lon": 2.9654,
      "population": 340
    },
    {
      "insee": "12240",
      "nom": "Saint-Parthem",
      "lat": 44.6348,
      "lon": 2.2908,
      "population": 399
    },
    {
      "insee": "12242",
      "nom": "Saint-Rémy",
      "lat": 44.396,
      "lon": 2.0442,
      "population": 310
    },
    {
      "insee": "12243",
      "nom": "Saint-Rome-de-Cernon",
      "lat": 44.0099,
      "lon": 2.9876,
      "population": 963
    },
    {
      "insee": "12244",
      "nom": "Saint-Rome-de-Tarn",
      "lat": 44.0362,
      "lon": 2.8923,
      "population": 904
    },
    {
      "insee": "12246",
      "nom": "Saint-Santin",
      "lat": 44.6394,
      "lon": 2.2705,
      "population": 514
    },
    {
      "insee": "12247",
      "nom": "Saint-Saturnin-de-Lenne",
      "lat": 44.4095,
      "lon": 3.0203,
      "population": 328
    },
    {
      "insee": "12248",
      "nom": "Saint-Sernin-sur-Rance",
      "lat": 43.8793,
      "lon": 2.6248,
      "population": 580
    },
    {
      "insee": "12249",
      "nom": "Saint-Sever-du-Moustier",
      "lat": 43.7753,
      "lon": 2.6918,
      "population": 179
    },
    {
      "insee": "12250",
      "nom": "Saint-Symphorien-de-Thénières",
      "lat": 44.7387,
      "lon": 2.7072,
      "population": 218
    },
    {
      "insee": "12251",
      "nom": "Saint-Victor-et-Melvieu",
      "lat": 44.0502,
      "lon": 2.8074,
      "population": 286
    },
    {
      "insee": "12217",
      "nom": "Sainte-Croix",
      "lat": 44.4115,
      "lon": 1.9642,
      "population": 734
    },
    {
      "insee": "12219",
      "nom": "Sainte-Eulalie-d'Olt",
      "lat": 44.4662,
      "lon": 2.9231,
      "population": 367
    },
    {
      "insee": "12220",
      "nom": "Sainte-Eulalie-de-Cernon",
      "lat": 43.9605,
      "lon": 3.155,
      "population": 325
    },
    {
      "insee": "12234",
      "nom": "Sainte-Juliette-sur-Viaur",
      "lat": 44.2178,
      "lon": 2.5027,
      "population": 645
    },
    {
      "insee": "12241",
      "nom": "Sainte-Radegonde",
      "lat": 44.3297,
      "lon": 2.6333,
      "population": 1793
    },
    {
      "insee": "12252",
      "nom": "Salles-Courbatiès",
      "lat": 44.4842,
      "lon": 2.0869,
      "population": 480
    },
    {
      "insee": "12253",
      "nom": "Salles-Curan",
      "lat": 44.1594,
      "lon": 2.7797,
      "population": 1043
    },
    {
      "insee": "12254",
      "nom": "Salles-la-Source",
      "lat": 44.4471,
      "lon": 2.5291,
      "population": 2333
    },
    {
      "insee": "12255",
      "nom": "Salmiech",
      "lat": 44.1959,
      "lon": 2.5851,
      "population": 757
    },
    {
      "insee": "12256",
      "nom": "Salvagnac-Cajarc",
      "lat": 44.455,
      "lon": 1.8723,
      "population": 372
    },
    {
      "insee": "12259",
      "nom": "Sanvensa",
      "lat": 44.281,
      "lon": 2.0434,
      "population": 643
    },
    {
      "insee": "12260",
      "nom": "Sauclières",
      "lat": 43.9794,
      "lon": 3.3829,
      "population": 188
    },
    {
      "insee": "12261",
      "nom": "Saujac",
      "lat": 44.4767,
      "lon": 1.9022,
      "population": 126
    },
    {
      "insee": "12262",
      "nom": "Sauveterre-de-Rouergue",
      "lat": 44.2503,
      "lon": 2.3151,
      "population": 709
    },
    {
      "insee": "12263",
      "nom": "Savignac",
      "lat": 44.3616,
      "lon": 1.9596,
      "population": 746
    },
    {
      "insee": "12264",
      "nom": "Sébazac-Concourès",
      "lat": 44.4236,
      "lon": 2.6156,
      "population": 3234
    },
    {
      "insee": "12265",
      "nom": "Sébrazac",
      "lat": 44.5358,
      "lon": 2.6577,
      "population": 538
    },
    {
      "insee": "12266",
      "nom": "Ségur",
      "lat": 44.2879,
      "lon": 2.834,
      "population": 534
    },
    {
      "insee": "12268",
      "nom": "Sénergues",
      "lat": 44.5993,
      "lon": 2.4564,
      "population": 423
    },
    {
      "insee": "12270",
      "nom": "Sévérac d'Aveyron",
      "lat": 44.3138,
      "lon": 3.0294,
      "population": 4026
    },
    {
      "insee": "12272",
      "nom": "Sonnac",
      "lat": 44.5394,
      "lon": 2.1188,
      "population": 519
    },
    {
      "insee": "12273",
      "nom": "Soulages-Bonneval",
      "lat": 44.6772,
      "lon": 2.7729,
      "population": 293
    },
    {
      "insee": "12274",
      "nom": "Sylvanès",
      "lat": 43.8255,
      "lon": 2.9517,
      "population": 116
    },
    {
      "insee": "12275",
      "nom": "Tauriac-de-Camarès",
      "lat": 43.7764,
      "lon": 3.0307,
      "population": 35
    },
    {
      "insee": "12276",
      "nom": "Tauriac-de-Naucelle",
      "lat": 44.1436,
      "lon": 2.3272,
      "population": 398
    },
    {
      "insee": "12277",
      "nom": "Taussac",
      "lat": 44.8253,
      "lon": 2.6375,
      "population": 504
    },
    {
      "insee": "12278",
      "nom": "Tayrac",
      "lat": 44.2042,
      "lon": 2.2466,
      "population": 188
    },
    {
      "insee": "12280",
      "nom": "Thérondels",
      "lat": 44.8951,
      "lon": 2.7398,
      "population": 357
    },
    {
      "insee": "12281",
      "nom": "Toulonjac",
      "lat": 44.3799,
      "lon": 2.0013,
      "population": 755
    },
    {
      "insee": "12282",
      "nom": "Tournemire",
      "lat": 43.9678,
      "lon": 3.0242,
      "population": 413
    },
    {
      "insee": "12283",
      "nom": "Trémouilles",
      "lat": 44.2397,
      "lon": 2.6371,
      "population": 473
    },
    {
      "insee": "12286",
      "nom": "Vabres-l'Abbaye",
      "lat": 43.9252,
      "lon": 2.8106,
      "population": 1205
    },
    {
      "insee": "12287",
      "nom": "Vailhourles",
      "lat": 44.31,
      "lon": 1.9069,
      "population": 648
    },
    {
      "insee": "12288",
      "nom": "Valady",
      "lat": 44.4462,
      "lon": 2.4412,
      "population": 1610
    },
    {
      "insee": "12289",
      "nom": "Valzergues",
      "lat": 44.5074,
      "lon": 2.2195,
      "population": 207
    },
    {
      "insee": "12290",
      "nom": "Vaureilles",
      "lat": 44.4559,
      "lon": 2.1874,
      "population": 485
    },
    {
      "insee": "12291",
      "nom": "Verrières",
      "lat": 44.2155,
      "lon": 3.048,
      "population": 357
    },
    {
      "insee": "12292",
      "nom": "Versols-et-Lapeyre",
      "lat": 43.9003,
      "lon": 2.9323,
      "population": 421
    },
    {
      "insee": "12293",
      "nom": "Veyreau",
      "lat": 44.1744,
      "lon": 3.3013,
      "population": 124
    },
    {
      "insee": "12294",
      "nom": "Vézins-de-Lévézou",
      "lat": 44.2628,
      "lon": 2.9426,
      "population": 656
    },
    {
      "insee": "12295",
      "nom": "Viala-du-Pas-de-Jaux",
      "lat": 43.953,
      "lon": 3.0649,
      "population": 84
    },
    {
      "insee": "12296",
      "nom": "Viala-du-Tarn",
      "lat": 44.0893,
      "lon": 2.8437,
      "population": 529
    },
    {
      "insee": "12298",
      "nom": "Villecomtal",
      "lat": 44.5434,
      "lon": 2.5753,
      "population": 430
    },
    {
      "insee": "12299",
      "nom": "Villefranche-de-Panat",
      "lat": 44.0851,
      "lon": 2.7148,
      "population": 677
    },
    {
      "insee": "12300",
      "nom": "Villefranche-de-Rouergue",
      "lat": 44.3471,
      "lon": 2.0296,
      "population": 11271
    },
    {
      "insee": "12301",
      "nom": "Villeneuve",
      "lat": 44.4457,
      "lon": 2.0288,
      "population": 1948
    },
    {
      "insee": "12303",
      "nom": "Vimenet",
      "lat": 44.4019,
      "lon": 2.9267,
      "population": 248
    },
    {
      "insee": "12305",
      "nom": "Viviez",
      "lat": 44.5541,
      "lon": 2.2209,
      "population": 1210
    }
  ]
}