{
  "country": "FR",
  "departmentCode": "54",
  "label": "Departement 54",
  "communes": [
    {
      "insee": "54001",
      "nom": "Abaucourt",
      "lat": 48.8903,
      "lon": 6.2655,
      "population": 330
    },
    {
      "insee": "54002",
      "nom": "Abbéville-lès-Conflans",
      "lat": 49.2005,
      "lon": 5.8464,
      "population": 240
    },
    {
      "insee": "54003",
      "nom": "Aboncourt",
      "lat": 48.3605,
      "lon": 5.9875,
      "population": 91
    },
    {
      "insee": "54004",
      "nom": "Affléville",
      "lat": 49.2627,
      "lon": 5.7579,
      "population": 172
    },
    {
      "insee": "54005",
      "nom": "Affracourt",
      "lat": 48.4602,
      "lon": 6.1655,
      "population": 113
    },
    {
      "insee": "54006",
      "nom": "Agincourt",
      "lat": 48.7294,
      "lon": 6.2351,
      "population": 424
    },
    {
      "insee": "54007",
      "nom": "Aingeray",
      "lat": 48.7371,
      "lon": 6.0192,
      "population": 532
    },
    {
      "insee": "54008",
      "nom": "Allain",
      "lat": 48.5489,
      "lon": 5.9202,
      "population": 490
    },
    {
      "insee": "54009",
      "nom": "Allamont",
      "lat": 49.1266,
      "lon": 5.7815,
      "population": 156
    },
    {
      "insee": "54010",
      "nom": "Allamps",
      "lat": 48.5501,
      "lon": 5.8111,
      "population": 505
    },
    {
      "insee": "54011",
      "nom": "Allondrelle-la-Malmaison",
      "lat": 49.5111,
      "lon": 5.5705,
      "population": 635
    },
    {
      "insee": "54012",
      "nom": "Amance",
      "lat": 48.7573,
      "lon": 6.308,
      "population": 365
    },
    {
      "insee": "54013",
      "nom": "Amenoncourt",
      "lat": 48.6308,
      "lon": 6.7865,
      "population": 87
    },
    {
      "insee": "54014",
      "nom": "Ancerviller",
      "lat": 48.5328,
      "lon": 6.8352,
      "population": 245
    },
    {
      "insee": "54015",
      "nom": "Anderny",
      "lat": 49.3371,
      "lon": 5.8818,
      "population": 254
    },
    {
      "insee": "54016",
      "nom": "Andilly",
      "lat": 48.7665,
      "lon": 5.8883,
      "population": 275
    },
    {
      "insee": "54017",
      "nom": "Angomont",
      "lat": 48.5043,
      "lon": 6.9799,
      "population": 75
    },
    {
      "insee": "54018",
      "nom": "Anoux",
      "lat": 49.2739,
      "lon": 5.8683,
      "population": 270
    },
    {
      "insee": "54019",
      "nom": "Ansauville",
      "lat": 48.811,
      "lon": 5.826,
      "population": 76
    },
    {
      "insee": "54020",
      "nom": "Anthelupt",
      "lat": 48.6012,
      "lon": 6.4167,
      "population": 440
    },
    {
      "insee": "54021",
      "nom": "Armaucourt",
      "lat": 48.8096,
      "lon": 6.2979,
      "population": 239
    },
    {
      "insee": "54022",
      "nom": "Arnaville",
      "lat": 49.0176,
      "lon": 6.0251,
      "population": 556
    },
    {
      "insee": "54023",
      "nom": "Arracourt",
      "lat": 48.7274,
      "lon": 6.5362,
      "population": 254
    },
    {
      "insee": "54024",
      "nom": "Arraye-et-Han",
      "lat": 48.8377,
      "lon": 6.2972,
      "population": 370
    },
    {
      "insee": "54025",
      "nom": "Art-sur-Meurthe",
      "lat": 48.6604,
      "lon": 6.2585,
      "population": 1700
    },
    {
      "insee": "54026",
      "nom": "Athienville",
      "lat": 48.7172,
      "lon": 6.48,
      "population": 163
    },
    {
      "insee": "54027",
      "nom": "Atton",
      "lat": 48.8973,
      "lon": 6.1074,
      "population": 897
    },
    {
      "insee": "54028",
      "nom": "Auboué",
      "lat": 49.2125,
      "lon": 5.9752,
      "population": 2650
    },
    {
      "insee": "54029",
      "nom": "Audun-le-Roman",
      "lat": 49.3639,
      "lon": 5.8939,
      "population": 2483
    },
    {
      "insee": "54030",
      "nom": "Autrepierre",
      "lat": 48.6081,
      "lon": 6.7974,
      "population": 74
    },
    {
      "insee": "54031",
      "nom": "Autreville-sur-Moselle",
      "lat": 48.8284,
      "lon": 6.1101,
      "population": 264
    },
    {
      "insee": "54032",
      "nom": "Autrey",
      "lat": 48.5322,
      "lon": 6.1257,
      "population": 192
    },
    {
      "insee": "54033",
      "nom": "Avillers",
      "lat": 49.324,
      "lon": 5.7387,
      "population": 141
    },
    {
      "insee": "54034",
      "nom": "Avrainville",
      "lat": 48.7716,
      "lon": 5.9439,
      "population": 215
    },
    {
      "insee": "54035",
      "nom": "Avricourt",
      "lat": 48.6423,
      "lon": 6.811,
      "population": 377
    },
    {
      "insee": "54036",
      "nom": "Avril",
      "lat": 49.2924,
      "lon": 5.9666,
      "population": 1225
    },
    {
      "insee": "54037",
      "nom": "Azelot",
      "lat": 48.5807,
      "lon": 6.2281,
      "population": 411
    },
    {
      "insee": "54038",
      "nom": "Azerailles",
      "lat": 48.4942,
      "lon": 6.6922,
      "population": 786
    },
    {
      "insee": "54039",
      "nom": "Baccarat",
      "lat": 48.4475,
      "lon": 6.7436,
      "population": 4089
    },
    {
      "insee": "54040",
      "nom": "Badonviller",
      "lat": 48.4916,
      "lon": 6.9073,
      "population": 1497
    },
    {
      "insee": "54041",
      "nom": "Bagneux",
      "lat": 48.5569,
      "lon": 5.8751,
      "population": 127
    },
    {
      "insee": "54042",
      "nom": "Bainville-aux-Miroirs",
      "lat": 48.4362,
      "lon": 6.2867,
      "population": 304
    },
    {
      "insee": "54043",
      "nom": "Bainville-sur-Madon",
      "lat": 48.5903,
      "lon": 6.0814,
      "population": 1441
    },
    {
      "insee": "54044",
      "nom": "Barbas",
      "lat": 48.5714,
      "lon": 6.8469,
      "population": 204
    },
    {
      "insee": "54045",
      "nom": "Barbonville",
      "lat": 48.5486,
      "lon": 6.3519,
      "population": 434
    },
    {
      "insee": "54046",
      "nom": "Barisey-au-Plain",
      "lat": 48.5238,
      "lon": 5.8502,
      "population": 393
    },
    {
      "insee": "54047",
      "nom": "Barisey-la-Côte",
      "lat": 48.5458,
      "lon": 5.8467,
      "population": 275
    },
    {
      "insee": "54049",
      "nom": "Baslieux",
      "lat": 49.4406,
      "lon": 5.7545,
      "population": 528
    },
    {
      "insee": "54050",
      "nom": "Bathelémont",
      "lat": 48.6919,
      "lon": 6.5274,
      "population": 69
    },
    {
      "insee": "54051",
      "nom": "Batilly",
      "lat": 49.1756,
      "lon": 5.9686,
      "population": 1313
    },
    {
      "insee": "54052",
      "nom": "Battigny",
      "lat": 48.4428,
      "lon": 5.984,
      "population": 139
    },
    {
      "insee": "54053",
      "nom": "Bauzemont",
      "lat": 48.6725,
      "lon": 6.5323,
      "population": 154
    },
    {
      "insee": "54054",
      "nom": "Bayon",
      "lat": 48.482,
      "lon": 6.3207,
      "population": 1561
    },
    {
      "insee": "54055",
      "nom": "Bayonville-sur-Mad",
      "lat": 49.0168,
      "lon": 5.9972,
      "population": 331
    },
    {
      "insee": "54056",
      "nom": "Bazailles",
      "lat": 49.4124,
      "lon": 5.7653,
      "population": 151
    },
    {
      "insee": "54057",
      "nom": "Beaumont",
      "lat": 48.8483,
      "lon": 5.792,
      "population": 69
    },
    {
      "insee": "54058",
      "nom": "Béchamps",
      "lat": 49.2144,
      "lon": 5.7415,
      "population": 80
    },
    {
      "insee": "54059",
      "nom": "Belleau",
      "lat": 48.85,
      "lon": 6.1831,
      "population": 766
    },
    {
      "insee": "54060",
      "nom": "Belleville",
      "lat": 48.8169,
      "lon": 6.0934,
      "population": 1512
    },
    {
      "insee": "54061",
      "nom": "Bénaménil",
      "lat": 48.5632,
      "lon": 6.6621,
      "population": 592
    },
    {
      "insee": "54062",
      "nom": "Benney",
      "lat": 48.5274,
      "lon": 6.2273,
      "population": 637
    },
    {
      "insee": "54063",
      "nom": "Bernécourt",
      "lat": 48.8531,
      "lon": 5.8423,
      "population": 178
    },
    {
      "insee": "54064",
      "nom": "Bertrambois",
      "lat": 48.5761,
      "lon": 7.0217,
      "population": 320
    },
    {
      "insee": "54065",
      "nom": "Bertrichamps",
      "lat": 48.434,
      "lon": 6.805,
      "population": 1081
    },
    {
      "insee": "54066",
      "nom": "Bettainvillers",
      "lat": 49.2982,
      "lon": 5.9073,
      "population": 374
    },
    {
      "insee": "54067",
      "nom": "Beuveille",
      "lat": 49.4356,
      "lon": 5.6722,
      "population": 783
    },
    {
      "insee": "54068",
      "nom": "Beuvezin",
      "lat": 48.3794,
      "lon": 5.9705,
      "population": 90
    },
    {
      "insee": "54069",
      "nom": "Beuvillers",
      "lat": 49.388,
      "lon": 5.9174,
      "population": 557
    },
    {
      "insee": "54070",
      "nom": "Bey-sur-Seille",
      "lat": 48.7958,
      "lon": 6.3352,
      "population": 196
    },
    {
      "insee": "54071",
      "nom": "Bezange-la-Grande",
      "lat": 48.7487,
      "lon": 6.4753,
      "population": 169
    },
    {
      "insee": "54072",
      "nom": "Bezaumont",
      "lat": 48.8476,
      "lon": 6.1033,
      "population": 258
    },
    {
      "insee": "54073",
      "nom": "Bicqueley",
      "lat": 48.6268,
      "lon": 5.9386,
      "population": 925
    },
    {
      "insee": "54074",
      "nom": "Bienville-la-Petite",
      "lat": 48.6318,
      "lon": 6.513,
      "population": 36
    },
    {
      "insee": "54075",
      "nom": "Bionville",
      "lat": 48.494,
      "lon": 7.0234,
      "population": 112
    },
    {
      "insee": "54076",
      "nom": "Blainville-sur-l'Eau",
      "lat": 48.5499,
      "lon": 6.4158,
      "population": 3893
    },
    {
      "insee": "54077",
      "nom": "Blâmont",
      "lat": 48.5883,
      "lon": 6.845,
      "population": 1042
    },
    {
      "insee": "54078",
      "nom": "Blémerey",
      "lat": 48.5807,
      "lon": 6.7387,
      "population": 56
    },
    {
      "insee": "54079",
      "nom": "Blénod-lès-Pont-à-Mousson",
      "lat": 48.8746,
      "lon": 6.0635,
      "population": 4659
    },
    {
      "insee": "54080",
      "nom": "Blénod-lès-Toul",
      "lat": 48.5918,
      "lon": 5.83,
      "population": 1013
    },
    {
      "insee": "54557",
      "nom": "Bois-de-Haye",
      "lat": 48.7002,
      "lon": 6.0435,
      "population": 2312
    },
    {
      "insee": "54081",
      "nom": "Boismont",
      "lat": 49.4113,
      "lon": 5.7395,
      "population": 410
    },
    {
      "insee": "54082",
      "nom": "Boncourt",
      "lat": 49.1707,
      "lon": 5.8259,
      "population": 179
    },
    {
      "insee": "54083",
      "nom": "Bonviller",
      "lat": 48.6296,
      "lon": 6.4982,
      "population": 183
    },
    {
      "insee": "54085",
      "nom": "Borville",
      "lat": 48.446,
      "lon": 6.3953,
      "population": 83
    },
    {
      "insee": "54086",
      "nom": "Boucq",
      "lat": 48.7579,
      "lon": 5.7529,
      "population": 359
    },
    {
      "insee": "54087",
      "nom": "Bouillonville",
      "lat": 48.9409,
      "lon": 5.8455,
      "population": 145
    },
    {
      "insee": "54088",
      "nom": "Bouvron",
      "lat": 48.7385,
      "lon": 5.8836,
      "population": 196
    },
    {
      "insee": "54089",
      "nom": "Bouxières-aux-Chênes",
      "lat": 48.7705,
      "lon": 6.2749,
      "population": 1415
    },
    {
      "insee": "54090",
      "nom": "Bouxières-aux-Dames",
      "lat": 48.7602,
      "lon": 6.1624,
      "population": 4106
    },
    {
      "insee": "54091",
      "nom": "Bouxières-sous-Froidmont",
      "lat": 48.9556,
      "lon": 6.1015,
      "population": 430
    },
    {
      "insee": "54092",
      "nom": "Bouzanville",
      "lat": 48.3714,
      "lon": 6.107,
      "population": 64
    },
    {
      "insee": "54093",
      "nom": "Brainville",
      "lat": 49.1251,
      "lon": 5.809,
      "population": 167
    },
    {
      "insee": "54094",
      "nom": "Bralleville",
      "lat": 48.4088,
      "lon": 6.1932,
      "population": 171
    },
    {
      "insee": "54095",
      "nom": "Bratte",
      "lat": 48.8174,
      "lon": 6.2156,
      "population": 46
    },
    {
      "insee": "54096",
      "nom": "Bréhain-la-Ville",
      "lat": 49.4378,
      "lon": 5.8853,
      "population": 463
    },
    {
      "insee": "54097",
      "nom": "Bréménil",
      "lat": 48.5222,
      "lon": 6.916,
      "population": 92
    },
    {
      "insee": "54098",
      "nom": "Brémoncourt",
      "lat": 48.4921,
      "lon": 6.3614,
      "population": 166
    },
    {
      "insee": "54100",
      "nom": "Brin-sur-Seille",
      "lat": 48.7745,
      "lon": 6.3566,
      "population": 764
    },
    {
      "insee": "54101",
      "nom": "Brouville",
      "lat": 48.4907,
      "lon": 6.7469,
      "population": 115
    },
    {
      "insee": "54102",
      "nom": "Bruley",
      "lat": 48.7147,
      "lon": 5.8494,
      "population": 611
    },
    {
      "insee": "54103",
      "nom": "Bruville",
      "lat": 49.1219,
      "lon": 5.9287,
      "population": 217
    },
    {
      "insee": "54104",
      "nom": "Buissoncourt",
      "lat": 48.682,
      "lon": 6.3434,
      "population": 262
    },
    {
      "insee": "54105",
      "nom": "Bulligny",
      "lat": 48.5719,
      "lon": 5.8399,
      "population": 538
    },
    {
      "insee": "54106",
      "nom": "Bures",
      "lat": 48.6969,
      "lon": 6.569,
      "population": 64
    },
    {
      "insee": "54107",
      "nom": "Buriville",
      "lat": 48.5375,
      "lon": 6.6843,
      "population": 69
    },
    {
      "insee": "54108",
      "nom": "Burthecourt-aux-Chênes",
      "lat": 48.5773,
      "lon": 6.2487,
      "population": 151
    },
    {
      "insee": "54109",
      "nom": "Ceintrey",
      "lat": 48.5277,
      "lon": 6.1787,
      "population": 889
    },
    {
      "insee": "54110",
      "nom": "Cerville",
      "lat": 48.6952,
      "lon": 6.3121,
      "population": 531
    },
    {
      "insee": "54111",
      "nom": "Chaligny",
      "lat": 48.6421,
      "lon": 6.0905,
      "population": 2729
    },
    {
      "insee": "54112",
      "nom": "Chambley-Bussières",
      "lat": 49.0516,
      "lon": 5.9136,
      "population": 729
    },
    {
      "insee": "54113",
      "nom": "Champenoux",
      "lat": 48.7329,
      "lon": 6.3541,
      "population": 1568
    },
    {
      "insee": "54114",
      "nom": "Champey-sur-Moselle",
      "lat": 48.9568,
      "lon": 6.0628,
      "population": 315
    },
    {
      "insee": "54115",
      "nom": "Champigneulles",
      "lat": 48.7199,
      "lon": 6.1268,
      "population": 6551
    },
    {
      "insee": "54116",
      "nom": "Chanteheux",
      "lat": 48.5932,
      "lon": 6.5414,
      "population": 2111
    },
    {
      "insee": "54117",
      "nom": "Chaouilley",
      "lat": 48.4427,
      "lon": 6.0675,
      "population": 111
    },
    {
      "insee": "54118",
      "nom": "Charency-Vezin",
      "lat": 49.4874,
      "lon": 5.5165,
      "population": 625
    },
    {
      "insee": "54119",
      "nom": "Charey",
      "lat": 48.9959,
      "lon": 5.8605,
      "population": 88
    },
    {
      "insee": "54120",
      "nom": "Charmes-la-Côte",
      "lat": 48.6246,
      "lon": 5.8273,
      "population": 315
    },
    {
      "insee": "54121",
      "nom": "Charmois",
      "lat": 48.5341,
      "lon": 6.3908,
      "population": 201
    },
    {
      "insee": "54122",
      "nom": "Chaudeney-sur-Moselle",
      "lat": 48.6565,
      "lon": 5.926,
      "population": 730
    },
    {
      "insee": "54123",
      "nom": "Chavigny",
      "lat": 48.6323,
      "lon": 6.1311,
      "population": 1686
    },
    {
      "insee": "54124",
      "nom": "Chazelles-sur-Albe",
      "lat": 48.5869,
      "lon": 6.7696,
      "population": 50
    },
    {
      "insee": "54125",
      "nom": "Chenevières",
      "lat": 48.5229,
      "lon": 6.6343,
      "population": 469
    },
    {
      "insee": "54126",
      "nom": "Chenicourt",
      "lat": 48.859,
      "lon": 6.2808,
      "population": 209
    },
    {
      "insee": "54127",
      "nom": "Chenières",
      "lat": 49.4746,
      "lon": 5.7662,
      "population": 596
    },
    {
      "insee": "54128",
      "nom": "Choloy-Ménillot",
      "lat": 48.648,
      "lon": 5.8053,
      "population": 700
    },
    {
      "insee": "54129",
      "nom": "Cirey-sur-Vezouze",
      "lat": 48.5855,
      "lon": 6.9438,
      "population": 1555
    },
    {
      "insee": "54130",
      "nom": "Clayeures",
      "lat": 48.4705,
      "lon": 6.4118,
      "population": 175
    },
    {
      "insee": "54131",
      "nom": "Clémery",
      "lat": 48.8811,
      "lon": 6.1803,
      "population": 491
    },
    {
      "insee": "54132",
      "nom": "Clérey-sur-Brenon",
      "lat": 48.5059,
      "lon": 6.1377,
      "population": 57
    },
    {
      "insee": "54133",
      "nom": "Coincourt",
      "lat": 48.7028,
      "lon": 6.618,
      "population": 129
    },
    {
      "insee": "54134",
      "nom": "Colmey",
      "lat": 49.4656,
      "lon": 5.548,
      "population": 248
    },
    {
      "insee": "54135",
      "nom": "Colombey-les-Belles",
      "lat": 48.5192,
      "lon": 5.8997,
      "population": 1416
    },
    {
      "insee": "54136",
      "nom": "Conflans-en-Jarnisy",
      "lat": 49.1666,
      "lon": 5.8462,
      "population": 2389
    },
    {
      "insee": "54137",
      "nom": "Cons-la-Grandville",
      "lat": 49.4929,
      "lon": 5.6934,
      "population": 522
    },
    {
      "insee": "54138",
      "nom": "Cosnes-et-Romain",
      "lat": 49.5269,
      "lon": 5.7084,
      "population": 2802
    },
    {
      "insee": "54139",
      "nom": "Courbesseaux",
      "lat": 48.6932,
      "lon": 6.4005,
      "population": 397
    },
    {
      "insee": "54140",
      "nom": "Courcelles",
      "lat": 48.3693,
      "lon": 6.0296,
      "population": 85
    },
    {
      "insee": "54141",
      "nom": "Coyviller",
      "lat": 48.5848,
      "lon": 6.2835,
      "population": 157
    },
    {
      "insee": "54142",
      "nom": "Crantenoy",
      "lat": 48.4679,
      "lon": 6.2307,
      "population": 147
    },
    {
      "insee": "54143",
      "nom": "Crépey",
      "lat": 48.5289,
      "lon": 5.9644,
      "population": 388
    },
    {
      "insee": "54144",
      "nom": "Crévéchamps",
      "lat": 48.5205,
      "lon": 6.2632,
      "population": 341
    },
    {
      "insee": "54145",
      "nom": "Crévic",
      "lat": 48.638,
      "lon": 6.4064,
      "population": 935
    },
    {
      "insee": "54146",
      "nom": "Crézilles",
      "lat": 48.5817,
      "lon": 5.8902,
      "population": 291
    },
    {
      "insee": "54147",
      "nom": "Crion",
      "lat": 48.6446,
      "lon": 6.5566,
      "population": 112
    },
    {
      "insee": "54148",
      "nom": "Croismare",
      "lat": 48.6093,
      "lon": 6.5763,
      "population": 626
    },
    {
      "insee": "54149",
      "nom": "Crusnes",
      "lat": 49.4335,
      "lon": 5.9197,
      "population": 1559
    },
    {
      "insee": "54150",
      "nom": "Custines",
      "lat": 48.7896,
      "lon": 6.1416,
      "population": 3089
    },
    {
      "insee": "54151",
      "nom": "Cutry",
      "lat": 49.4812,
      "lon": 5.7383,
      "population": 1032
    },
    {
      "insee": "54152",
      "nom": "Damelevières",
      "lat": 48.5648,
      "lon": 6.3967,
      "population": 3080
    },
    {
      "insee": "54153",
      "nom": "Dampvitoux",
      "lat": 49.0037,
      "lon": 5.8333,
      "population": 55
    },
    {
      "insee": "54154",
      "nom": "Deneuvre",
      "lat": 48.429,
      "lon": 6.7181,
      "population": 454
    },
    {
      "insee": "54155",
      "nom": "Deuxville",
      "lat": 48.6196,
      "lon": 6.4575,
      "population": 400
    },
    {
      "insee": "54156",
      "nom": "Diarville",
      "lat": 48.387,
      "lon": 6.1273,
      "population": 460
    },
    {
      "insee": "54157",
      "nom": "Dieulouard",
      "lat": 48.8324,
      "lon": 6.0568,
      "population": 4581
    },
    {
      "insee": "54158",
      "nom": "Dolcourt",
      "lat": 48.4925,
      "lon": 5.9678,
      "population": 150
    },
    {
      "insee": "54159",
      "nom": "Dombasle-sur-Meurthe",
      "lat": 48.6209,
      "lon": 6.3613,
      "population": 9424
    },
    {
      "insee": "54160",
      "nom": "Domèvre-en-Haye",
      "lat": 48.8153,
      "lon": 5.9362,
      "population": 410
    },
    {
      "insee": "54161",
      "nom": "Domèvre-sur-Vezouze",
      "lat": 48.5597,
      "lon": 6.7997,
      "population": 314
    },
    {
      "insee": "54162",
      "nom": "Domgermain",
      "lat": 48.6424,
      "lon": 5.8134,
      "population": 1120
    },
    {
      "insee": "54163",
      "nom": "Domjevin",
      "lat": 48.5794,
      "lon": 6.6995,
      "population": 268
    },
    {
      "insee": "54164",
      "nom": "Dommarie-Eulmont",
      "lat": 48.4192,
      "lon": 6.0335,
      "population": 74
    },
    {
      "insee": "54165",
      "nom": "Dommartemont",
      "lat": 48.717,
      "lon": 6.2163,
      "population": 566
    },
    {
      "insee": "54166",
      "nom": "Dommartin-la-Chaussée",
      "lat": 49.0095,
      "lon": 5.8677,
      "population": 29
    },
    {
      "insee": "54167",
      "nom": "Dommartin-lès-Toul",
      "lat": 48.6728,
      "lon": 5.9268,
      "population": 2013
    },
    {
      "insee": "54168",
      "nom": "Dommartin-sous-Amance",
      "lat": 48.7336,
      "lon": 6.2479,
      "population": 319
    },
    {
      "insee": "54169",
      "nom": "Domprix",
      "lat": 49.3303,
      "lon": 5.7641,
      "population": 97
    },
    {
      "insee": "54170",
      "nom": "Domptail-en-l'Air",
      "lat": 48.5104,
      "lon": 6.3325,
      "population": 69
    },
    {
      "insee": "54171",
      "nom": "Doncourt-lès-Conflans",
      "lat": 49.1465,
      "lon": 5.9311,
      "population": 1110
    },
    {
      "insee": "54172",
      "nom": "Doncourt-lès-Longuyon",
      "lat": 49.4401,
      "lon": 5.7137,
      "population": 297
    },
    {
      "insee": "54173",
      "nom": "Drouville",
      "lat": 48.67,
      "lon": 6.4123,
      "population": 191
    },
    {
      "insee": "54174",
      "nom": "Écrouves",
      "lat": 48.6835,
      "lon": 5.846,
      "population": 4474
    },
    {
      "insee": "54175",
      "nom": "Einvaux",
      "lat": 48.495,
      "lon": 6.3929,
      "population": 338
    },
    {
      "insee": "54176",
      "nom": "Einville-au-Jard",
      "lat": 48.6523,
      "lon": 6.4813,
      "population": 1053
    },
    {
      "insee": "54177",
      "nom": "Emberménil",
      "lat": 48.6402,
      "lon": 6.6852,
      "population": 229
    },
    {
      "insee": "54178",
      "nom": "Épiez-sur-Chiers",
      "lat": 49.5008,
      "lon": 5.5007,
      "population": 192
    },
    {
      "insee": "54179",
      "nom": "Éply",
      "lat": 48.925,
      "lon": 6.1789,
      "population": 291
    },
    {
      "insee": "54180",
      "nom": "Erbéviller-sur-Amezule",
      "lat": 48.7306,
      "lon": 6.3883,
      "population": 68
    },
    {
      "insee": "54181",
      "nom": "Errouville",
      "lat": 49.4176,
      "lon": 5.8951,
      "population": 682
    },
    {
      "insee": "54182",
      "nom": "Essey-et-Maizerais",
      "lat": 48.9112,
      "lon": 5.8034,
      "population": 339
    },
    {
      "insee": "54183",
      "nom": "Essey-la-Côte",
      "lat": 48.4231,
      "lon": 6.4718,
      "population": 76
    },
    {
      "insee": "54184",
      "nom": "Essey-lès-Nancy",
      "lat": 48.7077,
      "lon": 6.2326,
      "population": 8670
    },
    {
      "insee": "54185",
      "nom": "Étreval",
      "lat": 48.4561,
      "lon": 6.0529,
      "population": 59
    },
    {
      "insee": "54186",
      "nom": "Eulmont",
      "lat": 48.7487,
      "lon": 6.2216,
      "population": 1120
    },
    {
      "insee": "54187",
      "nom": "Euvezin",
      "lat": 48.9173,
      "lon": 5.8599,
      "population": 107
    },
    {
      "insee": "54188",
      "nom": "Faulx",
      "lat": 48.7944,
      "lon": 6.2002,
      "population": 1370
    },
    {
      "insee": "54189",
      "nom": "Favières",
      "lat": 48.4574,
      "lon": 5.9335,
      "population": 572
    },
    {
      "insee": "54190",
      "nom": "Fécocourt",
      "lat": 48.4033,
      "lon": 5.998,
      "population": 105
    },
    {
      "insee": "54191",
      "nom": "Fenneviller",
      "lat": 48.4834,
      "lon": 6.8773,
      "population": 108
    },
    {
      "insee": "54192",
      "nom": "Ferrières",
      "lat": 48.5536,
      "lon": 6.2935,
      "population": 361
    },
    {
      "insee": "54193",
      "nom": "Fey-en-Haye",
      "lat": 48.9037,
      "lon": 5.9642,
      "population": 57
    },
    {
      "insee": "54194",
      "nom": "Fillières",
      "lat": 49.4119,
      "lon": 5.8408,
      "population": 531
    },
    {
      "insee": "54195",
      "nom": "Flainval",
      "lat": 48.6196,
      "lon": 6.3997,
      "population": 159
    },
    {
      "insee": "54196",
      "nom": "Flavigny-sur-Moselle",
      "lat": 48.5735,
      "lon": 6.1906,
      "population": 1661
    },
    {
      "insee": "54197",
      "nom": "Fléville-devant-Nancy",
      "lat": 48.6283,
      "lon": 6.2012,
      "population": 2171
    },
    {
      "insee": "54198",
      "nom": "Fléville-Lixières",
      "lat": 49.2428,
      "lon": 5.8052,
      "population": 299
    },
    {
      "insee": "54199",
      "nom": "Flin",
      "lat": 48.5051,
      "lon": 6.6584,
      "population": 398
    },
    {
      "insee": "54200",
      "nom": "Flirey",
      "lat": 48.8862,
      "lon": 5.8506,
      "population": 159
    },
    {
      "insee": "54201",
      "nom": "Fontenoy-la-Joûte",
      "lat": 48.449,
      "lon": 6.657,
      "population": 311
    },
    {
      "insee": "54202",
      "nom": "Fontenoy-sur-Moselle",
      "lat": 48.7076,
      "lon": 5.9893,
      "population": 365
    },
    {
      "insee": "54203",
      "nom": "Forcelles-Saint-Gorgon",
      "lat": 48.4574,
      "lon": 6.1047,
      "population": 168
    },
    {
      "insee": "54204",
      "nom": "Forcelles-sous-Gugney",
      "lat": 48.3924,
      "lon": 6.0832,
      "population": 85
    },
    {
      "insee": "54205",
      "nom": "Foug",
      "lat": 48.6748,
      "lon": 5.779,
      "population": 2628
    },
    {
      "insee": "54206",
      "nom": "Fraimbois",
      "lat": 48.5263,
      "lon": 6.5448,
      "population": 348
    },
    {
      "insee": "54207",
      "nom": "Fraisnes-en-Saintois",
      "lat": 48.3735,
      "lon": 6.0598,
      "population": 85
    },
    {
      "insee": "54208",
      "nom": "Francheville",
      "lat": 48.7394,
      "lon": 5.9288,
      "population": 297
    },
    {
      "insee": "54209",
      "nom": "Franconville",
      "lat": 48.5004,
      "lon": 6.4528,
      "population": 63
    },
    {
      "insee": "54210",
      "nom": "Fréménil",
      "lat": 48.5623,
      "lon": 6.7053,
      "population": 222
    },
    {
      "insee": "54211",
      "nom": "Frémonville",
      "lat": 48.6086,
      "lon": 6.9045,
      "population": 211
    },
    {
      "insee": "54212",
      "nom": "Fresnois-la-Montagne",
      "lat": 49.4991,
      "lon": 5.6486,
      "population": 415
    },
    {
      "insee": "54213",
      "nom": "Friauville",
      "lat": 49.1425,
      "lon": 5.8298,
      "population": 364
    },
    {
      "insee": "54214",
      "nom": "Frolois",
      "lat": 48.5698,
      "lon": 6.1284,
      "population": 717
    },
    {
      "insee": "54215",
      "nom": "Frouard",
      "lat": 48.757,
      "lon": 6.1231,
      "population": 6444
    },
    {
      "insee": "54216",
      "nom": "Froville",
      "lat": 48.4679,
      "lon": 6.3627,
      "population": 119
    },
    {
      "insee": "54217",
      "nom": "Gélacourt",
      "lat": 48.476,
      "lon": 6.7316,
      "population": 191
    },
    {
      "insee": "54218",
      "nom": "Gélaucourt",
      "lat": 48.4606,
      "lon": 5.9897,
      "population": 49
    },
    {
      "insee": "54219",
      "nom": "Gellenoncourt",
      "lat": 48.6749,
      "lon": 6.3828,
      "population": 81
    },
    {
      "insee": "54220",
      "nom": "Gémonville",
      "lat": 48.4193,
      "lon": 5.8823,
      "population": 74
    },
    {
      "insee": "54221",
      "nom": "Gerbécourt-et-Haplemont",
      "lat": 48.4896,
      "lon": 6.1515,
      "population": 248
    },
    {
      "insee": "54222",
      "nom": "Gerbéviller",
      "lat": 48.4922,
      "lon": 6.5102,
      "population": 1316
    },
    {
      "insee": "54223",
      "nom": "Germiny",
      "lat": 48.5475,
      "lon": 6.0027,
      "population": 188
    },
    {
      "insee": "54224",
      "nom": "Germonville",
      "lat": 48.4112,
      "lon": 6.219,
      "population": 133
    },
    {
      "insee": "54225",
      "nom": "Gézoncourt",
      "lat": 48.8449,
      "lon": 5.987,
      "population": 185
    },
    {
      "insee": "54226",
      "nom": "Gibeaumeix",
      "lat": 48.5915,
      "lon": 5.7444,
      "population": 177
    },
    {
      "insee": "54227",
      "nom": "Giraumont",
      "lat": 49.171,
      "lon": 5.9149,
      "population": 1380
    },
    {
      "insee": "54228",
      "nom": "Giriviller",
      "lat": 48.4343,
      "lon": 6.4955,
      "population": 71
    },
    {
      "insee": "54229",
      "nom": "Glonville",
      "lat": 48.4546,
      "lon": 6.6856,
      "population": 385
    },
    {
      "insee": "54230",
      "nom": "Gogney",
      "lat": 48.6146,
      "lon": 6.871,
      "population": 58
    },
    {
      "insee": "54231",
      "nom": "Gondrecourt-Aix",
      "lat": 49.2443,
      "lon": 5.7601,
      "population": 183
    },
    {
      "insee": "54232",
      "nom": "Gondreville",
      "lat": 48.684,
      "lon": 5.9801,
      "population": 2635
    },
    {
      "insee": "54233",
      "nom": "Gondrexon",
      "lat": 48.6051,
      "lon": 6.768,
      "population": 31
    },
    {
      "insee": "54234",
      "nom": "Gorcy",
      "lat": 49.5351,
      "lon": 5.6852,
      "population": 2971
    },
    {
      "insee": "54235",
      "nom": "Goviller",
      "lat": 48.5039,
      "lon": 6.0164,
      "population": 418
    },
    {
      "insee": "54236",
      "nom": "Grand-Failly",
      "lat": 49.419,
      "lon": 5.5084,
      "population": 356
    },
    {
      "insee": "54237",
      "nom": "Grimonviller",
      "lat": 48.3815,
      "lon": 6.0087,
      "population": 116
    },
    {
      "insee": "54238",
      "nom": "Gripport",
      "lat": 48.4128,
      "lon": 6.2468,
      "population": 264
    },
    {
      "insee": "54239",
      "nom": "Griscourt",
      "lat": 48.8418,
      "lon": 6.0186,
      "population": 137
    },
    {
      "insee": "54240",
      "nom": "Grosrouvres",
      "lat": 48.8285,
      "lon": 5.8459,
      "population": 53
    },
    {
      "insee": "54241",
      "nom": "Gugney",
      "lat": 48.3961,
      "lon": 6.0571,
      "population": 67
    },
    {
      "insee": "54242",
      "nom": "Gye",
      "lat": 48.628,
      "lon": 5.8752,
      "population": 283
    },
    {
      "insee": "54243",
      "nom": "Hablainville",
      "lat": 48.5143,
      "lon": 6.7131,
      "population": 220
    },
    {
      "insee": "54244",
      "nom": "Hagéville",
      "lat": 49.0323,
      "lon": 5.8602,
      "population": 111
    },
    {
      "insee": "54245",
      "nom": "Haigneville",
      "lat": 48.4851,
      "lon": 6.3419,
      "population": 53
    },
    {
      "insee": "54246",
      "nom": "Halloville",
      "lat": 48.55,
      "lon": 6.8588,
      "population": 66
    },
    {
      "insee": "54247",
      "nom": "Hammeville",
      "lat": 48.5003,
      "lon": 6.075,
      "population": 195
    },
    {
      "insee": "54248",
      "nom": "Hamonville",
      "lat": 48.8207,
      "lon": 5.8089,
      "population": 94
    },
    {
      "insee": "54602",
      "nom": "Han-devant-Pierrepont",
      "lat": 49.3966,
      "lon": 5.7114,
      "population": 144
    },
    {
      "insee": "54249",
      "nom": "Hannonville-Suzémont",
      "lat": 49.0995,
      "lon": 5.8369,
      "population": 262
    },
    {
      "insee": "54250",
      "nom": "Haraucourt",
      "lat": 48.6671,
      "lon": 6.3589,
      "population": 729
    },
    {
      "insee": "54251",
      "nom": "Harbouey",
      "lat": 48.5709,
      "lon": 6.894,
      "population": 136
    },
    {
      "insee": "54252",
      "nom": "Haroué",
      "lat": 48.4735,
      "lon": 6.1917,
      "population": 508
    },
    {
      "insee": "54253",
      "nom": "Hatrize",
      "lat": 49.1962,
      "lon": 5.8963,
      "population": 838
    },
    {
      "insee": "54254",
      "nom": "Haucourt-Moulaine",
      "lat": 49.4984,
      "lon": 5.8102,
      "population": 3495
    },
    {
      "insee": "54255",
      "nom": "Haudonville",
      "lat": 48.5033,
      "lon": 6.4779,
      "population": 82
    },
    {
      "insee": "54256",
      "nom": "Haussonville",
      "lat": 48.5278,
      "lon": 6.3182,
      "population": 324
    },
    {
      "insee": "54257",
      "nom": "Heillecourt",
      "lat": 48.6501,
      "lon": 6.1967,
      "population": 5414
    },
    {
      "insee": "54258",
      "nom": "Hénaménil",
      "lat": 48.6653,
      "lon": 6.5732,
      "population": 147
    },
    {
      "insee": "54259",
      "nom": "Herbéviller",
      "lat": 48.5509,
      "lon": 6.7519,
      "population": 214
    },
    {
      "insee": "54260",
      "nom": "Hériménil",
      "lat": 48.5487,
      "lon": 6.5111,
      "population": 894
    },
    {
      "insee": "54261",
      "nom": "Herserange",
      "lat": 49.5187,
      "lon": 5.793,
      "population": 4170
    },
    {
      "insee": "54262",
      "nom": "Hoéville",
      "lat": 48.7179,
      "lon": 6.4328,
      "population": 199
    },
    {
      "insee": "54263",
      "nom": "Homécourt",
      "lat": 49.2246,
      "lon": 5.9932,
      "population": 6254
    },
    {
      "insee": "54264",
      "nom": "Houdelmont",
      "lat": 48.5378,
      "lon": 6.0939,
      "population": 363
    },
    {
      "insee": "54265",
      "nom": "Houdemont",
      "lat": 48.6409,
      "lon": 6.1718,
      "population": 2066
    },
    {
      "insee": "54266",
      "nom": "Houdreville",
      "lat": 48.5129,
      "lon": 6.1009,
      "population": 403
    },
    {
      "insee": "54268",
      "nom": "Housséville",
      "lat": 48.4092,
      "lon": 6.1155,
      "population": 139
    },
    {
      "insee": "54269",
      "nom": "Hudiviller",
      "lat": 48.5992,
      "lon": 6.3896,
      "population": 313
    },
    {
      "insee": "54270",
      "nom": "Hussigny-Godbrange",
      "lat": 49.4984,
      "lon": 5.855,
      "population": 3912
    },
    {
      "insee": "54271",
      "nom": "Igney",
      "lat": 48.6313,
      "lon": 6.8206,
      "population": 109
    },
    {
      "insee": "54272",
      "nom": "Jaillon",
      "lat": 48.764,
      "lon": 5.9736,
      "population": 469
    },
    {
      "insee": "54273",
      "nom": "Jarny",
      "lat": 49.1491,
      "lon": 5.8739,
      "population": 8050
    },
    {
      "insee": "54274",
      "nom": "Jarville-la-Malgrange",
      "lat": 48.6676,
      "lon": 6.2057,
      "population": 9356
    },
    {
      "insee": "54275",
      "nom": "Jaulny",
      "lat": 48.9679,
      "lon": 5.8947,
      "population": 220
    },
    {
      "insee": "54276",
      "nom": "Jeandelaincourt",
      "lat": 48.8501,
      "lon": 6.2378,
      "population": 785
    },
    {
      "insee": "54277",
      "nom": "Jeandelize",
      "lat": 49.1732,
      "lon": 5.7987,
      "population": 375
    },
    {
      "insee": "54278",
      "nom": "Jevoncourt",
      "lat": 48.4149,
      "lon": 6.1634,
      "population": 103
    },
    {
      "insee": "54279",
      "nom": "Jezainville",
      "lat": 48.8637,
      "lon": 6.0127,
      "population": 1051
    },
    {
      "insee": "54280",
      "nom": "Jœuf",
      "lat": 49.2322,
      "lon": 6.0142,
      "population": 6392
    },
    {
      "insee": "54281",
      "nom": "Jolivet",
      "lat": 48.6108,
      "lon": 6.5175,
      "population": 888
    },
    {
      "insee": "54282",
      "nom": "Joppécourt",
      "lat": 49.3882,
      "lon": 5.804,
      "population": 150
    },
    {
      "insee": "54283",
      "nom": "Jouaville",
      "lat": 49.1603,
      "lon": 5.9643,
      "population": 274
    },
    {
      "insee": "54284",
      "nom": "Joudreville",
      "lat": 49.287,
      "lon": 5.781,
      "population": 1101
    },
    {
      "insee": "54285",
      "nom": "Juvrecourt",
      "lat": 48.7407,
      "lon": 6.5638,
      "population": 35
    },
    {
      "insee": "54286",
      "nom": "Labry",
      "lat": 49.1819,
      "lon": 5.868,
      "population": 1554
    },
    {
      "insee": "54287",
      "nom": "Lachapelle",
      "lat": 48.4162,
      "lon": 6.7725,
      "population": 257
    },
    {
      "insee": "54288",
      "nom": "Lagney",
      "lat": 48.7465,
      "lon": 5.8329,
      "population": 500
    },
    {
      "insee": "54289",
      "nom": "Laître-sous-Amance",
      "lat": 48.7368,
      "lon": 6.2749,
      "population": 361
    },
    {
      "insee": "54290",
      "nom": "Laix",
      "lat": 49.4498,
      "lon": 5.7756,
      "population": 211
    },
    {
      "insee": "54291",
      "nom": "Lalœuf",
      "lat": 48.4662,
      "lon": 6.0087,
      "population": 306
    },
    {
      "insee": "54292",
      "nom": "Lamath",
      "lat": 48.522,
      "lon": 6.4388,
      "population": 180
    },
    {
      "insee": "54293",
      "nom": "Landécourt",
      "lat": 48.5007,
      "lon": 6.4223,
      "population": 86
    },
    {
      "insee": "54294",
      "nom": "Landremont",
      "lat": 48.8586,
      "lon": 6.1506,
      "population": 134
    },
    {
      "insee": "54295",
      "nom": "Landres",
      "lat": 49.3179,
      "lon": 5.8072,
      "population": 989
    },
    {
      "insee": "54296",
      "nom": "Laneuvelotte",
      "lat": 48.7213,
      "lon": 6.3046,
      "population": 430
    },
    {
      "insee": "54297",
      "nom": "Laneuveville-aux-Bois",
      "lat": 48.621,
      "lon": 6.6415,
      "population": 300
    },
    {
      "insee": "54298",
      "nom": "Laneuveville-derrière-Foug",
      "lat": 48.7077,
      "lon": 5.8047,
      "population": 155
    },
    {
      "insee": "54299",
      "nom": "Laneuveville-devant-Bayon",
      "lat": 48.4694,
      "lon": 6.2638,
      "population": 231
    },
    {
      "insee": "54300",
      "nom": "Laneuveville-devant-Nancy",
      "lat": 48.6503,
      "lon": 6.2471,
      "population": 6630
    },
    {
      "insee": "54301",
      "nom": "Lanfroicourt",
      "lat": 48.804,
      "lon": 6.3199,
      "population": 133
    },
    {
      "insee": "54302",
      "nom": "Lantéfontaine",
      "lat": 49.2534,
      "lon": 5.8866,
      "population": 730
    },
    {
      "insee": "54303",
      "nom": "Laronxe",
      "lat": 48.5437,
      "lon": 6.6022,
      "population": 361
    },
    {
      "insee": "54304",
      "nom": "Laxou",
      "lat": 48.6839,
      "lon": 6.1183,
      "population": 14771
    },
    {
      "insee": "54305",
      "nom": "Lay-Saint-Christophe",
      "lat": 48.7516,
      "lon": 6.1924,
      "population": 2355
    },
    {
      "insee": "54306",
      "nom": "Lay-Saint-Remy",
      "lat": 48.6801,
      "lon": 5.7643,
      "population": 340
    },
    {
      "insee": "54307",
      "nom": "Lebeuville",
      "lat": 48.4338,
      "lon": 6.2409,
      "population": 146
    },
    {
      "insee": "54308",
      "nom": "Leintrey",
      "lat": 48.6313,
      "lon": 6.7423,
      "population": 151
    },
    {
      "insee": "54309",
      "nom": "Lemainville",
      "lat": 48.5086,
      "lon": 6.1879,
      "population": 407
    },
    {
      "insee": "54310",
      "nom": "Leménil-Mitry",
      "lat": 48.4549,
      "lon": 6.2563,
      "population": 2
    },
    {
      "insee": "54311",
      "nom": "Lenoncourt",
      "lat": 48.6724,
      "lon": 6.3002,
      "population": 593
    },
    {
      "insee": "54048",
      "nom": "Les Baroches",
      "lat": 49.2307,
      "lon": 5.8881,
      "population": 325
    },
    {
      "insee": "54312",
      "nom": "Lesménils",
      "lat": 48.9317,
      "lon": 6.1116,
      "population": 506
    },
    {
      "insee": "54313",
      "nom": "Létricourt",
      "lat": 48.8772,
      "lon": 6.2844,
      "population": 224
    },
    {
      "insee": "54314",
      "nom": "Lexy",
      "lat": 49.5019,
      "lon": 5.7302,
      "population": 3904
    },
    {
      "insee": "54315",
      "nom": "Leyr",
      "lat": 48.8059,
      "lon": 6.2687,
      "population": 906
    },
    {
      "insee": "54316",
      "nom": "Limey-Remenauville",
      "lat": 48.8934,
      "lon": 5.9061,
      "population": 317
    },
    {
      "insee": "54317",
      "nom": "Lironville",
      "lat": 48.8676,
      "lon": 5.9106,
      "population": 131
    },
    {
      "insee": "54318",
      "nom": "Liverdun",
      "lat": 48.75,
      "lon": 6.0524,
      "population": 5580
    },
    {
      "insee": "54320",
      "nom": "Loisy",
      "lat": 48.8692,
      "lon": 6.1004,
      "population": 322
    },
    {
      "insee": "54321",
      "nom": "Longlaville",
      "lat": 49.5347,
      "lon": 5.8002,
      "population": 2377
    },
    {
      "insee": "54322",
      "nom": "Longuyon",
      "lat": 49.4625,
      "lon": 5.5887,
      "population": 5134
    },
    {
      "insee": "54323",
      "nom": "Longwy",
      "lat": 49.5217,
      "lon": 5.7672,
      "population": 15679
    },
    {
      "insee": "54324",
      "nom": "Lorey",
      "lat": 48.4958,
      "lon": 6.3165,
      "population": 91
    },
    {
      "insee": "54325",
      "nom": "Loromontzey",
      "lat": 48.4308,
      "lon": 6.3716,
      "population": 77
    },
    {
      "insee": "54326",
      "nom": "Lubey",
      "lat": 49.2464,
      "lon": 5.8575,
      "population": 215
    },
    {
      "insee": "54327",
      "nom": "Lucey",
      "lat": 48.7233,
      "lon": 5.8296,
      "population": 623
    },
    {
      "insee": "54328",
      "nom": "Ludres",
      "lat": 48.6213,
      "lon": 6.1751,
      "population": 5843
    },
    {
      "insee": "54329",
      "nom": "Lunéville",
      "lat": 48.5963,
      "lon": 6.5101,
      "population": 18262
    },
    {
      "insee": "54330",
      "nom": "Lupcourt",
      "lat": 48.6006,
      "lon": 6.2203,
      "population": 428
    },
    {
      "insee": "54331",
      "nom": "Magnières",
      "lat": 48.4433,
      "lon": 6.5653,
      "population": 290
    },
    {
      "insee": "54332",
      "nom": "Maidières",
      "lat": 48.8963,
      "lon": 6.0323,
      "population": 1492
    },
    {
      "insee": "54333",
      "nom": "Mailly-sur-Seille",
      "lat": 48.918,
      "lon": 6.2512,
      "population": 245
    },
    {
      "insee": "54334",
      "nom": "Mairy-Mainville",
      "lat": 49.3046,
      "lon": 5.8631,
      "population": 551
    },
    {
      "insee": "54335",
      "nom": "Maixe",
      "lat": 48.6464,
      "lon": 6.4372,
      "population": 409
    },
    {
      "insee": "54336",
      "nom": "Maizières",
      "lat": 48.5955,
      "lon": 6.0491,
      "population": 932
    },
    {
      "insee": "54337",
      "nom": "Malavillers",
      "lat": 49.3588,
      "lon": 5.8649,
      "population": 122
    },
    {
      "insee": "54338",
      "nom": "Malleloy",
      "lat": 48.7909,
      "lon": 6.1672,
      "population": 1007
    },
    {
      "insee": "54339",
      "nom": "Malzéville",
      "lat": 48.7223,
      "lon": 6.1927,
      "population": 7820
    },
    {
      "insee": "54340",
      "nom": "Mamey",
      "lat": 48.8797,
      "lon": 5.9565,
      "population": 333
    },
    {
      "insee": "54343",
      "nom": "Mandres-aux-Quatre-Tours",
      "lat": 48.8277,
      "lon": 5.7893,
      "population": 207
    },
    {
      "insee": "54344",
      "nom": "Mangonville",
      "lat": 48.451,
      "lon": 6.2902,
      "population": 208
    },
    {
      "insee": "54345",
      "nom": "Manoncourt-en-Vermois",
      "lat": 48.5999,
      "lon": 6.2699,
      "population": 345
    },
    {
      "insee": "54346",
      "nom": "Manoncourt-en-Woëvre",
      "lat": 48.7774,
      "lon": 5.9268,
      "population": 256
    },
    {
      "insee": "54348",
      "nom": "Manonville",
      "lat": 48.8329,
      "lon": 5.914,
      "population": 221
    },
    {
      "insee": "54349",
      "nom": "Manonviller",
      "lat": 48.5909,
      "lon": 6.6626,
      "population": 172
    },
    {
      "insee": "54350",
      "nom": "Marainviller",
      "lat": 48.6012,
      "lon": 6.61,
      "population": 704
    },
    {
      "insee": "54351",
      "nom": "Marbache",
      "lat": 48.7908,
      "lon": 6.0938,
      "population": 1665
    },
    {
      "insee": "54352",
      "nom": "Maron",
      "lat": 48.6574,
      "lon": 6.0511,
      "population": 841
    },
    {
      "insee": "54353",
      "nom": "Mars-la-Tour",
      "lat": 49.0942,
      "lon": 5.8912,
      "population": 875
    },
    {
      "insee": "54354",
      "nom": "Marthemont",
      "lat": 48.5593,
      "lon": 6.04,
      "population": 52
    },
    {
      "insee": "54355",
      "nom": "Martincourt",
      "lat": 48.8483,
      "lon": 5.9488,
      "population": 89
    },
    {
      "insee": "54356",
      "nom": "Mattexey",
      "lat": 48.4389,
      "lon": 6.523,
      "population": 62
    },
    {
      "insee": "54357",
      "nom": "Maxéville",
      "lat": 48.7093,
      "lon": 6.1432,
      "population": 10090
    },
    {
      "insee": "54358",
      "nom": "Mazerulles",
      "lat": 48.7527,
      "lon": 6.3732,
      "population": 283
    },
    {
      "insee": "54359",
      "nom": "Méhoncourt",
      "lat": 48.5109,
      "lon": 6.3819,
      "population": 240
    },
    {
      "insee": "54360",
      "nom": "Ménil-la-Tour",
      "lat": 48.7742,
      "lon": 5.8473,
      "population": 342
    },
    {
      "insee": "54362",
      "nom": "Mercy-le-Bas",
      "lat": 49.3852,
      "lon": 5.7582,
      "population": 1273
    },
    {
      "insee": "54363",
      "nom": "Mercy-le-Haut",
      "lat": 49.3694,
      "lon": 5.8233,
      "population": 276
    },
    {
      "insee": "54364",
      "nom": "Méréville",
      "lat": 48.589,
      "lon": 6.1337,
      "population": 1288
    },
    {
      "insee": "54365",
      "nom": "Merviller",
      "lat": 48.4742,
      "lon": 6.7771,
      "population": 327
    },
    {
      "insee": "54366",
      "nom": "Messein",
      "lat": 48.6124,
      "lon": 6.1463,
      "population": 1981
    },
    {
      "insee": "54367",
      "nom": "Mexy",
      "lat": 49.5025,
      "lon": 5.7877,
      "population": 2300
    },
    {
      "insee": "54368",
      "nom": "Mignéville",
      "lat": 48.5332,
      "lon": 6.7858,
      "population": 170
    },
    {
      "insee": "54369",
      "nom": "Millery",
      "lat": 48.8151,
      "lon": 6.1389,
      "population": 599
    },
    {
      "insee": "54370",
      "nom": "Minorville",
      "lat": 48.8082,
      "lon": 5.877,
      "population": 227
    },
    {
      "insee": "54371",
      "nom": "Moineville",
      "lat": 49.1991,
      "lon": 5.9489,
      "population": 1114
    },
    {
      "insee": "54372",
      "nom": "Moivrons",
      "lat": 48.8282,
      "lon": 6.2491,
      "population": 528
    },
    {
      "insee": "54373",
      "nom": "Moncel-lès-Lunéville",
      "lat": 48.5611,
      "lon": 6.5612,
      "population": 612
    },
    {
      "insee": "54374",
      "nom": "Moncel-sur-Seille",
      "lat": 48.7706,
      "lon": 6.423,
      "population": 548
    },
    {
      "insee": "54084",
      "nom": "Mont-Bonvillers",
      "lat": 49.3283,
      "lon": 5.844,
      "population": 965
    },
    {
      "insee": "54379",
      "nom": "Mont-l'Étroit",
      "lat": 48.4995,
      "lon": 5.7862,
      "population": 93
    },
    {
      "insee": "54380",
      "nom": "Mont-le-Vignoble",
      "lat": 48.6224,
      "lon": 5.8487,
      "population": 421
    },
    {
      "insee": "54382",
      "nom": "Mont-Saint-Martin",
      "lat": 49.5469,
      "lon": 5.7872,
      "population": 9361
    },
    {
      "insee": "54383",
      "nom": "Mont-sur-Meurthe",
      "lat": 48.5489,
      "lon": 6.4453,
      "population": 1135
    },
    {
      "insee": "54375",
      "nom": "Montauville",
      "lat": 48.8931,
      "lon": 6.0014,
      "population": 1097
    },
    {
      "insee": "54376",
      "nom": "Montenoy",
      "lat": 48.7947,
      "lon": 6.2395,
      "population": 397
    },
    {
      "insee": "54377",
      "nom": "Montigny",
      "lat": 48.5127,
      "lon": 6.8014,
      "population": 147
    },
    {
      "insee": "54378",
      "nom": "Montigny-sur-Chiers",
      "lat": 49.4753,
      "lon": 5.6672,
      "population": 486
    },
    {
      "insee": "54381",
      "nom": "Montreux",
      "lat": 48.5358,
      "lon": 6.8898,
      "population": 50
    },
    {
      "insee": "54385",
      "nom": "Morfontaine",
      "lat": 49.4453,
      "lon": 5.8193,
      "population": 1073
    },
    {
      "insee": "54386",
      "nom": "Moriviller",
      "lat": 48.4801,
      "lon": 6.4393,
      "population": 95
    },
    {
      "insee": "54387",
      "nom": "Morville-sur-Seille",
      "lat": 48.9188,
      "lon": 6.1448,
      "population": 169
    },
    {
      "insee": "54388",
      "nom": "Mouacourt",
      "lat": 48.6688,
      "lon": 6.6388,
      "population": 71
    },
    {
      "insee": "54389",
      "nom": "Mouaville",
      "lat": 49.2134,
      "lon": 5.7817,
      "population": 106
    },
    {
      "insee": "54390",
      "nom": "Mousson",
      "lat": 48.9119,
      "lon": 6.0914,
      "population": 101
    },
    {
      "insee": "54391",
      "nom": "Moutiers",
      "lat": 49.2338,
      "lon": 5.9555,
      "population": 1602
    },
    {
      "insee": "54392",
      "nom": "Moutrot",
      "lat": 48.6039,
      "lon": 5.8984,
      "population": 327
    },
    {
      "insee": "54393",
      "nom": "Moyen",
      "lat": 48.4927,
      "lon": 6.5932,
      "population": 517
    },
    {
      "insee": "54394",
      "nom": "Murville",
      "lat": 49.3445,
      "lon": 5.83,
      "population": 239
    },
    {
      "insee": "54395",
      "nom": "Nancy",
      "lat": 48.6881,
      "lon": 6.1734,
      "population": 103671
    },
    {
      "insee": "54396",
      "nom": "Neufmaisons",
      "lat": 48.4495,
      "lon": 6.8727,
      "population": 208
    },
    {
      "insee": "54397",
      "nom": "Neuves-Maisons",
      "lat": 48.6164,
      "lon": 6.1083,
      "population": 6524
    },
    {
      "insee": "54398",
      "nom": "Neuviller-lès-Badonviller",
      "lat": 48.5201,
      "lon": 6.877,
      "population": 89
    },
    {
      "insee": "54399",
      "nom": "Neuviller-sur-Moselle",
      "lat": 48.4897,
      "lon": 6.2798,
      "population": 250
    },
    {
      "insee": "54400",
      "nom": "Nomeny",
      "lat": 48.8778,
      "lon": 6.2327,
      "population": 1142
    },
    {
      "insee": "54401",
      "nom": "Nonhigny",
      "lat": 48.5469,
      "lon": 6.8908,
      "population": 140
    },
    {
      "insee": "54402",
      "nom": "Norroy-le-Sec",
      "lat": 49.2744,
      "lon": 5.8083,
      "population": 431
    },
    {
      "insee": "54403",
      "nom": "Norroy-lès-Pont-à-Mousson",
      "lat": 48.9314,
      "lon": 6.0104,
      "population": 1149
    },
    {
      "insee": "54404",
      "nom": "Noviant-aux-Prés",
      "lat": 48.8451,
      "lon": 5.8947,
      "population": 216
    },
    {
      "insee": "54405",
      "nom": "Ochey",
      "lat": 48.5955,
      "lon": 5.953,
      "population": 518
    },
    {
      "insee": "54406",
      "nom": "Ogéviller",
      "lat": 48.553,
      "lon": 6.7129,
      "population": 276
    },
    {
      "insee": "54407",
      "nom": "Ognéville",
      "lat": 48.472,
      "lon": 6.0577,
      "population": 87
    },
    {
      "insee": "54408",
      "nom": "Olley",
      "lat": 49.1738,
      "lon": 5.7653,
      "population": 220
    },
    {
      "insee": "54409",
      "nom": "Omelmont",
      "lat": 48.495,
      "lon": 6.118,
      "population": 192
    },
    {
      "insee": "54410",
      "nom": "Onville",
      "lat": 49.0181,
      "lon": 5.9654,
      "population": 501
    },
    {
      "insee": "54411",
      "nom": "Ormes-et-Ville",
      "lat": 48.4876,
      "lon": 6.2026,
      "population": 218
    },
    {
      "insee": "54412",
      "nom": "Othe",
      "lat": 49.4924,
      "lon": 5.4493,
      "population": 37
    },
    {
      "insee": "54413",
      "nom": "Ozerailles",
      "lat": 49.2248,
      "lon": 5.8429,
      "population": 145
    },
    {
      "insee": "54414",
      "nom": "Pagney-derrière-Barine",
      "lat": 48.7009,
      "lon": 5.85,
      "population": 646
    },
    {
      "insee": "54415",
      "nom": "Pagny-sur-Moselle",
      "lat": 48.9879,
      "lon": 6.0057,
      "population": 3919
    },
    {
      "insee": "54416",
      "nom": "Pannes",
      "lat": 48.9301,
      "lon": 5.7903,
      "population": 172
    },
    {
      "insee": "54417",
      "nom": "Parey-Saint-Césaire",
      "lat": 48.5291,
      "lon": 6.0612,
      "population": 248
    },
    {
      "insee": "54418",
      "nom": "Parroy",
      "lat": 48.6733,
      "lon": 6.6107,
      "population": 183
    },
    {
      "insee": "54419",
      "nom": "Parux",
      "lat": 48.5429,
      "lon": 6.922,
      "population": 69
    },
    {
      "insee": "54420",
      "nom": "Petit-Failly",
      "lat": 49.4395,
      "lon": 5.4988,
      "population": 98
    },
    {
      "insee": "54421",
      "nom": "Petitmont",
      "lat": 48.5468,
      "lon": 6.9885,
      "population": 305
    },
    {
      "insee": "54422",
      "nom": "Pettonville",
      "lat": 48.5289,
      "lon": 6.7425,
      "population": 65
    },
    {
      "insee": "54423",
      "nom": "Pexonne",
      "lat": 48.4674,
      "lon": 6.8818,
      "population": 326
    },
    {
      "insee": "54424",
      "nom": "Phlin",
      "lat": 48.9173,
      "lon": 6.2752,
      "population": 40
    },
    {
      "insee": "54425",
      "nom": "Piennes",
      "lat": 49.3074,
      "lon": 5.7851,
      "population": 2441
    },
    {
      "insee": "54426",
      "nom": "Pierre-la-Treiche",
      "lat": 48.6401,
      "lon": 5.9535,
      "population": 472
    },
    {
      "insee": "54427",
      "nom": "Pierre-Percée",
      "lat": 48.4612,
      "lon": 6.9418,
      "population": 90
    },
    {
      "insee": "54428",
      "nom": "Pierrepont",
      "lat": 49.42,
      "lon": 5.7063,
      "population": 824
    },
    {
      "insee": "54429",
      "nom": "Pierreville",
      "lat": 48.5483,
      "lon": 6.1109,
      "population": 299
    },
    {
      "insee": "54430",
      "nom": "Pompey",
      "lat": 48.774,
      "lon": 6.109,
      "population": 4780
    },
    {
      "insee": "54431",
      "nom": "Pont-à-Mousson",
      "lat": 48.9222,
      "lon": 6.047,
      "population": 14190
    },
    {
      "insee": "54432",
      "nom": "Pont-Saint-Vincent",
      "lat": 48.6084,
      "lon": 6.0664,
      "population": 1775
    },
    {
      "insee": "54433",
      "nom": "Port-sur-Seille",
      "lat": 48.8976,
      "lon": 6.1588,
      "population": 232
    },
    {
      "insee": "54434",
      "nom": "Praye",
      "lat": 48.4356,
      "lon": 6.1137,
      "population": 267
    },
    {
      "insee": "54435",
      "nom": "Prény",
      "lat": 48.9741,
      "lon": 5.9656,
      "population": 374
    },
    {
      "insee": "54436",
      "nom": "Preutin-Higny",
      "lat": 49.348,
      "lon": 5.7992,
      "population": 160
    },
    {
      "insee": "54437",
      "nom": "Pulligny",
      "lat": 48.5497,
      "lon": 6.1498,
      "population": 1155
    },
    {
      "insee": "54438",
      "nom": "Pulney",
      "lat": 48.3907,
      "lon": 6.0332,
      "population": 54
    },
    {
      "insee": "54439",
      "nom": "Pulnoy",
      "lat": 48.703,
      "lon": 6.2677,
      "population": 5099
    },
    {
      "insee": "54440",
      "nom": "Puxe",
      "lat": 49.1513,
      "lon": 5.7872,
      "population": 107
    },
    {
      "insee": "54441",
      "nom": "Puxieux",
      "lat": 49.0738,
      "lon": 5.8836,
      "population": 221
    },
    {
      "insee": "54442",
      "nom": "Quevilloncourt",
      "lat": 48.4716,
      "lon": 6.1038,
      "population": 96
    },
    {
      "insee": "54443",
      "nom": "Raon-lès-Leau",
      "lat": 48.5137,
      "lon": 7.1014,
      "population": 40
    },
    {
      "insee": "54444",
      "nom": "Raucourt",
      "lat": 48.9247,
      "lon": 6.2215,
      "population": 235
    },
    {
      "insee": "54445",
      "nom": "Raville-sur-Sânon",
      "lat": 48.6518,
      "lon": 6.5091,
      "population": 106
    },
    {
      "insee": "54446",
      "nom": "Réchicourt-la-Petite",
      "lat": 48.7192,
      "lon": 6.579,
      "population": 61
    },
    {
      "insee": "54447",
      "nom": "Réclonville",
      "lat": 48.5367,
      "lon": 6.7317,
      "population": 68
    },
    {
      "insee": "54449",
      "nom": "Rehainviller",
      "lat": 48.5668,
      "lon": 6.4685,
      "population": 1057
    },
    {
      "insee": "54450",
      "nom": "Reherrey",
      "lat": 48.5084,
      "lon": 6.7764,
      "population": 146
    },
    {
      "insee": "54451",
      "nom": "Réhon",
      "lat": 49.5007,
      "lon": 5.7565,
      "population": 3863
    },
    {
      "insee": "54452",
      "nom": "Reillon",
      "lat": 48.6001,
      "lon": 6.737,
      "population": 73
    },
    {
      "insee": "54453",
      "nom": "Rembercourt-sur-Mad",
      "lat": 48.9854,
      "lon": 5.901,
      "population": 164
    },
    {
      "insee": "54455",
      "nom": "Remenoville",
      "lat": 48.4659,
      "lon": 6.4727,
      "population": 157
    },
    {
      "insee": "54456",
      "nom": "Réméréville",
      "lat": 48.7065,
      "lon": 6.3786,
      "population": 648
    },
    {
      "insee": "54457",
      "nom": "Remoncourt",
      "lat": 48.6552,
      "lon": 6.7406,
      "population": 39
    },
    {
      "insee": "54458",
      "nom": "Repaix",
      "lat": 48.613,
      "lon": 6.8298,
      "population": 105
    },
    {
      "insee": "54459",
      "nom": "Richardménil",
      "lat": 48.5952,
      "lon": 6.1772,
      "population": 2389
    },
    {
      "insee": "54460",
      "nom": "Rogéville",
      "lat": 48.8151,
      "lon": 5.9758,
      "population": 157
    },
    {
      "insee": "54461",
      "nom": "Romain",
      "lat": 48.5208,
      "lon": 6.3558,
      "population": 69
    },
    {
      "insee": "54462",
      "nom": "Rosières-aux-Salines",
      "lat": 48.5961,
      "lon": 6.341,
      "population": 2810
    },
    {
      "insee": "54463",
      "nom": "Rosières-en-Haye",
      "lat": 48.7883,
      "lon": 5.9908,
      "population": 258
    },
    {
      "insee": "54464",
      "nom": "Rouves",
      "lat": 48.9014,
      "lon": 6.204,
      "population": 100
    },
    {
      "insee": "54465",
      "nom": "Roville-devant-Bayon",
      "lat": 48.4682,
      "lon": 6.2925,
      "population": 739
    },
    {
      "insee": "54466",
      "nom": "Royaumeix",
      "lat": 48.7799,
      "lon": 5.8231,
      "population": 385
    },
    {
      "insee": "54467",
      "nom": "Rozelieures",
      "lat": 48.4436,
      "lon": 6.4316,
      "population": 185
    },
    {
      "insee": "54468",
      "nom": "Saffais",
      "lat": 48.5606,
      "lon": 6.3151,
      "population": 104
    },
    {
      "insee": "54469",
      "nom": "Saint-Ail",
      "lat": 49.169,
      "lon": 6.0058,
      "population": 465
    },
    {
      "insee": "54470",
      "nom": "Saint-Baussant",
      "lat": 48.894,
      "lon": 5.794,
      "population": 60
    },
    {
      "insee": "54471",
      "nom": "Saint-Boingt",
      "lat": 48.4162,
      "lon": 6.4271,
      "population": 76
    },
    {
      "insee": "54472",
      "nom": "Saint-Clément",
      "lat": 48.5435,
      "lon": 6.6188,
      "population": 848
    },
    {
      "insee": "54473",
      "nom": "Saint-Firmin",
      "lat": 48.425,
      "lon": 6.136,
      "population": 292
    },
    {
      "insee": "54475",
      "nom": "Saint-Germain",
      "lat": 48.4232,
      "lon": 6.3412,
      "population": 156
    },
    {
      "insee": "54476",
      "nom": "Saint-Jean-lès-Longuyon",
      "lat": 49.4547,
      "lon": 5.4884,
      "population": 412
    },
    {
      "insee": "54477",
      "nom": "Saint-Julien-lès-Gorze",
      "lat": 49.0183,
      "lon": 5.9037,
      "population": 162
    },
    {
      "insee": "54478",
      "nom": "Saint-Marcel",
      "lat": 49.1255,
      "lon": 5.9731,
      "population": 150
    },
    {
      "insee": "54479",
      "nom": "Saint-Mard",
      "lat": 48.5099,
      "lon": 6.2989,
      "population": 104
    },
    {
      "insee": "54480",
      "nom": "Saint-Martin",
      "lat": 48.5736,
      "lon": 6.7466,
      "population": 53
    },
    {
      "insee": "54481",
      "nom": "Saint-Maurice-aux-Forges",
      "lat": 48.5074,
      "lon": 6.849,
      "population": 103
    },
    {
      "insee": "54482",
      "nom": "Saint-Max",
      "lat": 48.7061,
      "lon": 6.2041,
      "population": 9913
    },
    {
      "insee": "54483",
      "nom": "Saint-Nicolas-de-Port",
      "lat": 48.62,
      "lon": 6.2953,
      "population": 7359
    },
    {
      "insee": "54485",
      "nom": "Saint-Pancré",
      "lat": 49.5265,
      "lon": 5.6403,
      "population": 307
    },
    {
      "insee": "54486",
      "nom": "Saint-Remimont",
      "lat": 48.4972,
      "lon": 6.2587,
      "population": 324
    },
    {
      "insee": "54487",
      "nom": "Saint-Rémy-aux-Bois",
      "lat": 48.4157,
      "lon": 6.3921,
      "population": 66
    },
    {
      "insee": "54488",
      "nom": "Saint-Sauveur",
      "lat": 48.5242,
      "lon": 7.0071,
      "population": 43
    },
    {
      "insee": "54489",
      "nom": "Saint-Supplet",
      "lat": 49.3768,
      "lon": 5.7303,
      "population": 150
    },
    {
      "insee": "54474",
      "nom": "Sainte-Geneviève",
      "lat": 48.8693,
      "lon": 6.1368,
      "population": 184
    },
    {
      "insee": "54484",
      "nom": "Sainte-Pôle",
      "lat": 48.5057,
      "lon": 6.8341,
      "population": 177
    },
    {
      "insee": "54490",
      "nom": "Saizerais",
      "lat": 48.7891,
      "lon": 6.0386,
      "population": 1453
    },
    {
      "insee": "54491",
      "nom": "Sancy",
      "lat": 49.3523,
      "lon": 5.9372,
      "population": 365
    },
    {
      "insee": "54492",
      "nom": "Sanzey",
      "lat": 48.7632,
      "lon": 5.8224,
      "population": 137
    },
    {
      "insee": "54493",
      "nom": "Saulnes",
      "lat": 49.5285,
      "lon": 5.8252,
      "population": 2259
    },
    {
      "insee": "54494",
      "nom": "Saulxerotte",
      "lat": 48.474,
      "lon": 5.9357,
      "population": 104
    },
    {
      "insee": "54495",
      "nom": "Saulxures-lès-Nancy",
      "lat": 48.686,
      "lon": 6.2576,
      "population": 4344
    },
    {
      "insee": "54496",
      "nom": "Saulxures-lès-Vannes",
      "lat": 48.5191,
      "lon": 5.7992,
      "population": 376
    },
    {
      "insee": "54497",
      "nom": "Saxon-Sion",
      "lat": 48.4187,
      "lon": 6.086,
      "population": 46
    },
    {
      "insee": "54498",
      "nom": "Seichamps",
      "lat": 48.7159,
      "lon": 6.2709,
      "population": 5165
    },
    {
      "insee": "54499",
      "nom": "Seicheprey",
      "lat": 48.8682,
      "lon": 5.7945,
      "population": 104
    },
    {
      "insee": "54500",
      "nom": "Selaincourt",
      "lat": 48.4979,
      "lon": 5.9483,
      "population": 193
    },
    {
      "insee": "54501",
      "nom": "Seranville",
      "lat": 48.4615,
      "lon": 6.5153,
      "population": 102
    },
    {
      "insee": "54502",
      "nom": "Serres",
      "lat": 48.6933,
      "lon": 6.4551,
      "population": 254
    },
    {
      "insee": "54504",
      "nom": "Serrouville",
      "lat": 49.3941,
      "lon": 5.8783,
      "population": 683
    },
    {
      "insee": "54505",
      "nom": "Sexey-aux-Forges",
      "lat": 48.6376,
      "lon": 6.0301,
      "population": 718
    },
    {
      "insee": "54507",
      "nom": "Sionviller",
      "lat": 48.6332,
      "lon": 6.5474,
      "population": 102
    },
    {
      "insee": "54508",
      "nom": "Sivry",
      "lat": 48.8291,
      "lon": 6.2099,
      "population": 235
    },
    {
      "insee": "54509",
      "nom": "Sommerviller",
      "lat": 48.636,
      "lon": 6.3745,
      "population": 1010
    },
    {
      "insee": "54510",
      "nom": "Sornéville",
      "lat": 48.7379,
      "lon": 6.417,
      "population": 356
    },
    {
      "insee": "54511",
      "nom": "Sponville",
      "lat": 49.0737,
      "lon": 5.8346,
      "population": 108
    },
    {
      "insee": "54512",
      "nom": "Tanconville",
      "lat": 48.6045,
      "lon": 6.9363,
      "population": 105
    },
    {
      "insee": "54513",
      "nom": "Tantonville",
      "lat": 48.4672,
      "lon": 6.1403,
      "population": 663
    },
    {
      "insee": "54514",
      "nom": "Tellancourt",
      "lat": 49.509,
      "lon": 5.6311,
      "population": 633
    },
    {
      "insee": "54515",
      "nom": "Thélod",
      "lat": 48.5422,
      "lon": 6.0536,
      "population": 251
    },
    {
      "insee": "54516",
      "nom": "They-sous-Vaudemont",
      "lat": 48.4041,
      "lon": 6.054,
      "population": 17
    },
    {
      "insee": "54517",
      "nom": "Thézey-Saint-Martin",
      "lat": 48.9016,
      "lon": 6.3039,
      "population": 200
    },
    {
      "insee": "54518",
      "nom": "Thiaucourt-Regniéville",
      "lat": 48.9313,
      "lon": 5.8961,
      "population": 1120
    },
    {
      "insee": "54519",
      "nom": "Thiaville-sur-Meurthe",
      "lat": 48.4053,
      "lon": 6.8034,
      "population": 597
    },
    {
      "insee": "54520",
      "nom": "Thiébauménil",
      "lat": 48.5808,
      "lon": 6.6272,
      "population": 383
    },
    {
      "insee": "54521",
      "nom": "Thil",
      "lat": 49.4716,
      "lon": 5.9033,
      "population": 2016
    },
    {
      "insee": "54522",
      "nom": "Thorey-Lyautey",
      "lat": 48.4484,
      "lon": 6.029,
      "population": 119
    },
    {
      "insee": "54523",
      "nom": "Thuilley-aux-Groseilles",
      "lat": 48.5799,
      "lon": 5.9699,
      "population": 447
    },
    {
      "insee": "54524",
      "nom": "Thumeréville",
      "lat": 49.2061,
      "lon": 5.805,
      "population": 103
    },
    {
      "insee": "54525",
      "nom": "Tiercelet",
      "lat": 49.4606,
      "lon": 5.8839,
      "population": 633
    },
    {
      "insee": "54526",
      "nom": "Tomblaine",
      "lat": 48.6851,
      "lon": 6.2212,
      "population": 9117
    },
    {
      "insee": "54527",
      "nom": "Tonnoy",
      "lat": 48.5552,
      "lon": 6.2579,
      "population": 645
    },
    {
      "insee": "54528",
      "nom": "Toul",
      "lat": 48.6794,
      "lon": 5.898,
      "population": 15768
    },
    {
      "insee": "54529",
      "nom": "Tramont-Émy",
      "lat": 48.4134,
      "lon": 5.9484,
      "population": 28
    },
    {
      "insee": "54530",
      "nom": "Tramont-Lassus",
      "lat": 48.4042,
      "lon": 5.968,
      "population": 89
    },
    {
      "insee": "54531",
      "nom": "Tramont-Saint-André",
      "lat": 48.414,
      "lon": 5.9247,
      "population": 62
    },
    {
      "insee": "54532",
      "nom": "Tremblecourt",
      "lat": 48.8065,
      "lon": 5.945,
      "population": 155
    },
    {
      "insee": "54533",
      "nom": "Trieux",
      "lat": 49.3222,
      "lon": 5.9507,
      "population": 2753
    },
    {
      "insee": "54534",
      "nom": "Trondes",
      "lat": 48.7244,
      "lon": 5.7662,
      "population": 522
    },
    {
      "insee": "54535",
      "nom": "Tronville",
      "lat": 49.0842,
      "lon": 5.9207,
      "population": 200
    },
    {
      "insee": "54536",
      "nom": "Tucquegnieux",
      "lat": 49.3093,
      "lon": 5.8947,
      "population": 2441
    },
    {
      "insee": "54537",
      "nom": "Ugny",
      "lat": 49.4653,
      "lon": 5.7064,
      "population": 689
    },
    {
      "insee": "54538",
      "nom": "Uruffe",
      "lat": 48.5688,
      "lon": 5.743,
      "population": 365
    },
    {
      "insee": "54539",
      "nom": "Vacqueville",
      "lat": 48.4792,
      "lon": 6.8162,
      "population": 230
    },
    {
      "insee": "54099",
      "nom": "Val de Briey",
      "lat": 49.2663,
      "lon": 5.9546,
      "population": 8130
    },
    {
      "insee": "54540",
      "nom": "Val-et-Châtillon",
      "lat": 48.553,
      "lon": 7.0153,
      "population": 552
    },
    {
      "insee": "54541",
      "nom": "Valhey",
      "lat": 48.6856,
      "lon": 6.4948,
      "population": 158
    },
    {
      "insee": "54542",
      "nom": "Valleroy",
      "lat": 49.2151,
      "lon": 5.9096,
      "population": 2375
    },
    {
      "insee": "54543",
      "nom": "Vallois",
      "lat": 48.4594,
      "lon": 6.5462,
      "population": 121
    },
    {
      "insee": "54544",
      "nom": "Vandelainville",
      "lat": 49.0302,
      "lon": 5.9821,
      "population": 144
    },
    {
      "insee": "54545",
      "nom": "Vandeléville",
      "lat": 48.4251,
      "lon": 5.9867,
      "population": 209
    },
    {
      "insee": "54546",
      "nom": "Vandières",
      "lat": 48.959,
      "lon": 6.0094,
      "population": 934
    },
    {
      "insee": "54547",
      "nom": "Vandœuvre-lès-Nancy",
      "lat": 48.66,
      "lon": 6.1603,
      "population": 29942
    },
    {
      "insee": "54548",
      "nom": "Vannes-le-Châtel",
      "lat": 48.5738,
      "lon": 5.7849,
      "population": 506
    },
    {
      "insee": "54549",
      "nom": "Varangéville",
      "lat": 48.6405,
      "lon": 6.3158,
      "population": 3536
    },
    {
      "insee": "54550",
      "nom": "Vathiménil",
      "lat": 48.5034,
      "lon": 6.6134,
      "population": 317
    },
    {
      "insee": "54551",
      "nom": "Vaucourt",
      "lat": 48.6676,
      "lon": 6.688,
      "population": 64
    },
    {
      "insee": "54552",
      "nom": "Vaudémont",
      "lat": 48.4214,
      "lon": 6.0599,
      "population": 70
    },
    {
      "insee": "54553",
      "nom": "Vaudeville",
      "lat": 48.4557,
      "lon": 6.2093,
      "population": 166
    },
    {
      "insee": "54554",
      "nom": "Vaudigny",
      "lat": 48.436,
      "lon": 6.206,
      "population": 84
    },
    {
      "insee": "54555",
      "nom": "Vaxainville",
      "lat": 48.5204,
      "lon": 6.7554,
      "population": 83
    },
    {
      "insee": "54556",
      "nom": "Vého",
      "lat": 48.6035,
      "lon": 6.7114,
      "population": 112
    },
    {
      "insee": "54558",
      "nom": "Velaine-sous-Amance",
      "lat": 48.7168,
      "lon": 6.3226,
      "population": 286
    },
    {
      "insee": "54559",
      "nom": "Velle-sur-Moselle",
      "lat": 48.5287,
      "lon": 6.2849,
      "population": 327
    },
    {
      "insee": "54560",
      "nom": "Veney",
      "lat": 48.4615,
      "lon": 6.8148,
      "population": 49
    },
    {
      "insee": "54561",
      "nom": "Vennezey",
      "lat": 48.4428,
      "lon": 6.4598,
      "population": 37
    },
    {
      "insee": "54562",
      "nom": "Verdenal",
      "lat": 48.587,
      "lon": 6.8028,
      "population": 120
    },
    {
      "insee": "54563",
      "nom": "Vézelise",
      "lat": 48.4838,
      "lon": 6.0961,
      "population": 1346
    },
    {
      "insee": "54564",
      "nom": "Viéville-en-Haye",
      "lat": 48.941,
      "lon": 5.9133,
      "population": 141
    },
    {
      "insee": "54565",
      "nom": "Vigneulles",
      "lat": 48.5673,
      "lon": 6.3491,
      "population": 235
    },
    {
      "insee": "54566",
      "nom": "Vilcey-sur-Trey",
      "lat": 48.9417,
      "lon": 5.9589,
      "population": 145
    },
    {
      "insee": "54567",
      "nom": "Villacourt",
      "lat": 48.438,
      "lon": 6.3404,
      "population": 360
    },
    {
      "insee": "54568",
      "nom": "Ville-au-Montois",
      "lat": 49.4161,
      "lon": 5.804,
      "population": 242
    },
    {
      "insee": "54569",
      "nom": "Ville-au-Val",
      "lat": 48.8429,
      "lon": 6.1323,
      "population": 177
    },
    {
      "insee": "54571",
      "nom": "Ville-en-Vermois",
      "lat": 48.6162,
      "lon": 6.2396,
      "population": 599
    },
    {
      "insee": "54572",
      "nom": "Ville-Houdlémont",
      "lat": 49.5367,
      "lon": 5.6536,
      "population": 772
    },
    {
      "insee": "54581",
      "nom": "Ville-sur-Yron",
      "lat": 49.1225,
      "lon": 5.8712,
      "population": 293
    },
    {
      "insee": "54570",
      "nom": "Villecey-sur-Mad",
      "lat": 48.9942,
      "lon": 5.9475,
      "population": 344
    },
    {
      "insee": "54573",
      "nom": "Villers-en-Haye",
      "lat": 48.8214,
      "lon": 6.0073,
      "population": 157
    },
    {
      "insee": "54574",
      "nom": "Villers-la-Chèvre",
      "lat": 49.5059,
      "lon": 5.6907,
      "population": 580
    },
    {
      "insee": "54575",
      "nom": "Villers-la-Montagne",
      "lat": 49.4667,
      "lon": 5.8294,
      "population": 1570
    },
    {
      "insee": "54576",
      "nom": "Villers-le-Rond",
      "lat": 49.4706,
      "lon": 5.4872,
      "population": 109
    },
    {
      "insee": "54577",
      "nom": "Villers-lès-Moivrons",
      "lat": 48.8135,
      "lon": 6.2532,
      "population": 144
    },
    {
      "insee": "54578",
      "nom": "Villers-lès-Nancy",
      "lat": 48.6603,
      "lon": 6.1276,
      "population": 14718
    },
    {
      "insee": "54579",
      "nom": "Villers-sous-Prény",
      "lat": 48.9417,
      "lon": 5.9937,
      "population": 332
    },
    {
      "insee": "54580",
      "nom": "Villerupt",
      "lat": 49.466,
      "lon": 5.9275,
      "population": 10102
    },
    {
      "insee": "54582",
      "nom": "Villette",
      "lat": 49.4758,
      "lon": 5.5536,
      "population": 190
    },
    {
      "insee": "54583",
      "nom": "Villey-le-Sec",
      "lat": 48.6582,
      "lon": 5.9796,
      "population": 419
    },
    {
      "insee": "54584",
      "nom": "Villey-Saint-Étienne",
      "lat": 48.7277,
      "lon": 5.9668,
      "population": 1024
    },
    {
      "insee": "54585",
      "nom": "Virecourt",
      "lat": 48.4541,
      "lon": 6.3202,
      "population": 487
    },
    {
      "insee": "54586",
      "nom": "Viterne",
      "lat": 48.5835,
      "lon": 6.0133,
      "population": 738
    },
    {
      "insee": "54587",
      "nom": "Vitrey",
      "lat": 48.4921,
      "lon": 6.0423,
      "population": 193
    },
    {
      "insee": "54588",
      "nom": "Vitrimont",
      "lat": 48.5913,
      "lon": 6.4433,
      "population": 384
    },
    {
      "insee": "54589",
      "nom": "Vittonville",
      "lat": 48.9703,
      "lon": 6.0607,
      "population": 126
    },
    {
      "insee": "54590",
      "nom": "Viviers-sur-Chiers",
      "lat": 49.469,
      "lon": 5.6315,
      "population": 657
    },
    {
      "insee": "54591",
      "nom": "Voinémont",
      "lat": 48.5178,
      "lon": 6.1767,
      "population": 334
    },
    {
      "insee": "54592",
      "nom": "Vroncourt",
      "lat": 48.4598,
      "lon": 6.077,
      "population": 273
    },
    {
      "insee": "54593",
      "nom": "Waville",
      "lat": 49.0069,
      "lon": 5.9363,
      "population": 433
    },
    {
      "insee": "54594",
      "nom": "Xammes",
      "lat": 48.9764,
      "lon": 5.8464,
      "population": 174
    },
    {
      "insee": "54595",
      "nom": "Xermaménil",
      "lat": 48.5398,
      "lon": 6.4805,
      "population": 539
    },
    {
      "insee": "54596",
      "nom": "Xeuilley",
      "lat": 48.5615,
      "lon": 6.0884,
      "population": 959
    },
    {
      "insee": "54597",
      "nom": "Xirocourt",
      "lat": 48.4325,
      "lon": 6.1813,
      "population": 456
    },
    {
      "insee": "54598",
      "nom": "Xivry-Circourt",
      "lat": 49.3577,
      "lon": 5.7642,
      "population": 266
    },
    {
      "insee": "54599",
      "nom": "Xonville",
      "lat": 49.0559,
      "lon": 5.8556,
      "population": 108
    },
    {
      "insee": "54600",
      "nom": "Xousse",
      "lat": 48.6553,
      "lon": 6.7046,
      "population": 115
    },
    {
      "insee": "54601",
      "nom": "Xures",
      "lat": 48.6887,
      "lon": 6.6578,
      "population": 91
    }
  ]
}