{
  "country": "FR",
  "departmentCode": "16",
  "label": "Departement 16",
  "communes": [
    {
      "insee": "16001",
      "nom": "Abzac",
      "lat": 46.0999,
      "lon": 0.7174,
      "population": 518
    },
    {
      "insee": "16003",
      "nom": "Agris",
      "lat": 45.7753,
      "lon": 0.3305,
      "population": 891
    },
    {
      "insee": "16005",
      "nom": "Aigre",
      "lat": 45.8996,
      "lon": 0.0252,
      "population": 1594
    },
    {
      "insee": "16007",
      "nom": "Alloue",
      "lat": 46.0248,
      "lon": 0.5297,
      "population": 491
    },
    {
      "insee": "16008",
      "nom": "Ambérac",
      "lat": 45.8581,
      "lon": 0.0626,
      "population": 315
    },
    {
      "insee": "16009",
      "nom": "Ambernac",
      "lat": 45.978,
      "lon": 0.5516,
      "population": 381
    },
    {
      "insee": "16011",
      "nom": "Anais",
      "lat": 45.7697,
      "lon": 0.2046,
      "population": 587
    },
    {
      "insee": "16012",
      "nom": "Angeac-Champagne",
      "lat": 45.6131,
      "lon": -0.2877,
      "population": 495
    },
    {
      "insee": "16013",
      "nom": "Angeac-Charente",
      "lat": 45.6247,
      "lon": -0.0833,
      "population": 287
    },
    {
      "insee": "16014",
      "nom": "Angeduc",
      "lat": 45.4787,
      "lon": -0.0552,
      "population": 145
    },
    {
      "insee": "16015",
      "nom": "Angoulême",
      "lat": 45.6458,
      "lon": 0.145,
      "population": 41908
    },
    {
      "insee": "16016",
      "nom": "Ansac-sur-Vienne",
      "lat": 45.9934,
      "lon": 0.626,
      "population": 815
    },
    {
      "insee": "16018",
      "nom": "Ars",
      "lat": 45.6363,
      "lon": -0.403,
      "population": 686
    },
    {
      "insee": "16019",
      "nom": "Asnières-sur-Nouère",
      "lat": 45.7069,
      "lon": 0.0477,
      "population": 1272
    },
    {
      "insee": "16020",
      "nom": "Aubeterre-sur-Dronne",
      "lat": 45.2635,
      "lon": 0.1664,
      "population": 312
    },
    {
      "insee": "16023",
      "nom": "Aunac-sur-Charente",
      "lat": 45.9253,
      "lon": 0.2352,
      "population": 647
    },
    {
      "insee": "16024",
      "nom": "Aussac-Vadalle",
      "lat": 45.8258,
      "lon": 0.2147,
      "population": 564
    },
    {
      "insee": "16025",
      "nom": "Baignes-Sainte-Radegonde",
      "lat": 45.3757,
      "lon": -0.2583,
      "population": 1254
    },
    {
      "insee": "16026",
      "nom": "Balzac",
      "lat": 45.7167,
      "lon": 0.1321,
      "population": 1410
    },
    {
      "insee": "16027",
      "nom": "Barbezières",
      "lat": 45.9121,
      "lon": -0.0893,
      "population": 134
    },
    {
      "insee": "16028",
      "nom": "Barbezieux-Saint-Hilaire",
      "lat": 45.4811,
      "lon": -0.1554,
      "population": 4726
    },
    {
      "insee": "16029",
      "nom": "Bardenac",
      "lat": 45.3031,
      "lon": -0.0181,
      "population": 214
    },
    {
      "insee": "16030",
      "nom": "Barret",
      "lat": 45.4897,
      "lon": -0.2043,
      "population": 1080
    },
    {
      "insee": "16031",
      "nom": "Barro",
      "lat": 46.0069,
      "lon": 0.2348,
      "population": 413
    },
    {
      "insee": "16032",
      "nom": "Bassac",
      "lat": 45.6661,
      "lon": -0.101,
      "population": 529
    },
    {
      "insee": "16034",
      "nom": "Bazac",
      "lat": 45.2244,
      "lon": 0.0342,
      "population": 150
    },
    {
      "insee": "16035",
      "nom": "Beaulieu-sur-Sonnette",
      "lat": 45.9287,
      "lon": 0.3671,
      "population": 235
    },
    {
      "insee": "16036",
      "nom": "Bécheresse",
      "lat": 45.5019,
      "lon": 0.0786,
      "population": 290
    },
    {
      "insee": "16204",
      "nom": "Bellevigne",
      "lat": 45.5566,
      "lon": -0.1185,
      "population": 1271
    },
    {
      "insee": "16037",
      "nom": "Bellon",
      "lat": 45.3114,
      "lon": 0.1156,
      "population": 145
    },
    {
      "insee": "16038",
      "nom": "Benest",
      "lat": 46.042,
      "lon": 0.451,
      "population": 307
    },
    {
      "insee": "16039",
      "nom": "Bernac",
      "lat": 46.0543,
      "lon": 0.1689,
      "population": 465
    },
    {
      "insee": "16040",
      "nom": "Berneuil",
      "lat": 45.3903,
      "lon": -0.0714,
      "population": 325
    },
    {
      "insee": "16041",
      "nom": "Bessac",
      "lat": 45.4306,
      "lon": -0.0118,
      "population": 122
    },
    {
      "insee": "16042",
      "nom": "Bessé",
      "lat": 45.9572,
      "lon": 0.0805,
      "population": 120
    },
    {
      "insee": "16044",
      "nom": "Bioussac",
      "lat": 46.0296,
      "lon": 0.2671,
      "population": 206
    },
    {
      "insee": "16045",
      "nom": "Birac",
      "lat": 45.5628,
      "lon": -0.0559,
      "population": 374
    },
    {
      "insee": "16047",
      "nom": "Blanzaguet-Saint-Cybard",
      "lat": 45.4717,
      "lon": 0.3099,
      "population": 270
    },
    {
      "insee": "16048",
      "nom": "Boisbreteau",
      "lat": 45.3266,
      "lon": -0.1562,
      "population": 136
    },
    {
      "insee": "16082",
      "nom": "Boisné-La Tude",
      "lat": 45.4697,
      "lon": 0.1976,
      "population": 662
    },
    {
      "insee": "16049",
      "nom": "Bonnes",
      "lat": 45.2356,
      "lon": 0.145,
      "population": 364
    },
    {
      "insee": "16050",
      "nom": "Bonneuil",
      "lat": 45.5766,
      "lon": -0.1329,
      "population": 247
    },
    {
      "insee": "16053",
      "nom": "Bors (Canton de Charente-Sud)",
      "lat": 45.3265,
      "lon": -0.2004,
      "population": 119
    },
    {
      "insee": "16052",
      "nom": "Bors (Canton de Tude-et-Lavalette)",
      "lat": 45.3421,
      "lon": 0.1476,
      "population": 223
    },
    {
      "insee": "16055",
      "nom": "Bouëx",
      "lat": 45.6279,
      "lon": 0.3208,
      "population": 825
    },
    {
      "insee": "16056",
      "nom": "Bourg-Charente",
      "lat": 45.6644,
      "lon": -0.2243,
      "population": 887
    },
    {
      "insee": "16057",
      "nom": "Bouteville",
      "lat": 45.6105,
      "lon": -0.1242,
      "population": 313
    },
    {
      "insee": "16058",
      "nom": "Boutiers-Saint-Trojan",
      "lat": 45.714,
      "lon": -0.2956,
      "population": 1387
    },
    {
      "insee": "16059",
      "nom": "Brettes",
      "lat": 45.9975,
      "lon": 0.026,
      "population": 162
    },
    {
      "insee": "16060",
      "nom": "Bréville",
      "lat": 45.7848,
      "lon": -0.2744,
      "population": 436
    },
    {
      "insee": "16061",
      "nom": "Brie",
      "lat": 45.7329,
      "lon": 0.2623,
      "population": 4125
    },
    {
      "insee": "16062",
      "nom": "Brie-sous-Barbezieux",
      "lat": 45.4242,
      "lon": -0.0418,
      "population": 109
    },
    {
      "insee": "16063",
      "nom": "Brie-sous-Chalais",
      "lat": 45.3206,
      "lon": 0.0093,
      "population": 157
    },
    {
      "insee": "16064",
      "nom": "Brigueuil",
      "lat": 45.9503,
      "lon": 0.8769,
      "population": 1095
    },
    {
      "insee": "16065",
      "nom": "Brillac",
      "lat": 46.0708,
      "lon": 0.7651,
      "population": 591
    },
    {
      "insee": "16066",
      "nom": "Brossac",
      "lat": 45.3269,
      "lon": -0.0507,
      "population": 482
    },
    {
      "insee": "16067",
      "nom": "Bunzac",
      "lat": 45.6989,
      "lon": 0.3444,
      "population": 447
    },
    {
      "insee": "16068",
      "nom": "Cellefrouin",
      "lat": 45.8851,
      "lon": 0.3866,
      "population": 598
    },
    {
      "insee": "16069",
      "nom": "Cellettes",
      "lat": 45.8641,
      "lon": 0.1447,
      "population": 393
    },
    {
      "insee": "16070",
      "nom": "Chabanais",
      "lat": 45.8656,
      "lon": 0.7076,
      "population": 1589
    },
    {
      "insee": "16071",
      "nom": "Chabrac",
      "lat": 45.9236,
      "lon": 0.7462,
      "population": 603
    },
    {
      "insee": "16072",
      "nom": "Chadurie",
      "lat": 45.4924,
      "lon": 0.1454,
      "population": 505
    },
    {
      "insee": "16073",
      "nom": "Chalais",
      "lat": 45.2746,
      "lon": 0.0372,
      "population": 1812
    },
    {
      "insee": "16074",
      "nom": "Challignac",
      "lat": 45.4263,
      "lon": -0.0811,
      "population": 335
    },
    {
      "insee": "16076",
      "nom": "Champagne-Mouton",
      "lat": 46.0003,
      "lon": 0.4135,
      "population": 873
    },
    {
      "insee": "16075",
      "nom": "Champagne-Vigny",
      "lat": 45.5097,
      "lon": 0.0423,
      "population": 234
    },
    {
      "insee": "16077",
      "nom": "Champmillon",
      "lat": 45.6464,
      "lon": 0.0075,
      "population": 534
    },
    {
      "insee": "16078",
      "nom": "Champniers",
      "lat": 45.7167,
      "lon": 0.2059,
      "population": 5281
    },
    {
      "insee": "16079",
      "nom": "Chantillac",
      "lat": 45.3235,
      "lon": -0.2526,
      "population": 370
    },
    {
      "insee": "16083",
      "nom": "Charmé",
      "lat": 45.9508,
      "lon": 0.1205,
      "population": 336
    },
    {
      "insee": "16084",
      "nom": "Charras",
      "lat": 45.5449,
      "lon": 0.4265,
      "population": 346
    },
    {
      "insee": "16085",
      "nom": "Chasseneuil-sur-Bonnieure",
      "lat": 45.8242,
      "lon": 0.4453,
      "population": 3111
    },
    {
      "insee": "16086",
      "nom": "Chassenon",
      "lat": 45.8489,
      "lon": 0.7721,
      "population": 836
    },
    {
      "insee": "16087",
      "nom": "Chassiecq",
      "lat": 45.9518,
      "lon": 0.3695,
      "population": 147
    },
    {
      "insee": "16088",
      "nom": "Chassors",
      "lat": 45.7095,
      "lon": -0.208,
      "population": 1123
    },
    {
      "insee": "16089",
      "nom": "Châteaubernard",
      "lat": 45.6753,
      "lon": -0.3168,
      "population": 3878
    },
    {
      "insee": "16090",
      "nom": "Châteauneuf-sur-Charente",
      "lat": 45.5968,
      "lon": -0.0559,
      "population": 3550
    },
    {
      "insee": "16091",
      "nom": "Châtignac",
      "lat": 45.3489,
      "lon": -0.0034,
      "population": 163
    },
    {
      "insee": "16093",
      "nom": "Chazelles",
      "lat": 45.6459,
      "lon": 0.3572,
      "population": 1543
    },
    {
      "insee": "16095",
      "nom": "Chenon",
      "lat": 45.9457,
      "lon": 0.2246,
      "population": 124
    },
    {
      "insee": "16096",
      "nom": "Cherves-Châtelars",
      "lat": 45.8073,
      "lon": 0.5502,
      "population": 414
    },
    {
      "insee": "16099",
      "nom": "Chillac",
      "lat": 45.3573,
      "lon": -0.0845,
      "population": 227
    },
    {
      "insee": "16100",
      "nom": "Chirac",
      "lat": 45.9154,
      "lon": 0.6875,
      "population": 781
    },
    {
      "insee": "16101",
      "nom": "Claix",
      "lat": 45.5513,
      "lon": 0.0536,
      "population": 1049
    },
    {
      "insee": "16102",
      "nom": "Cognac",
      "lat": 45.696,
      "lon": -0.3376,
      "population": 18532
    },
    {
      "insee": "16103",
      "nom": "Combiers",
      "lat": 45.5124,
      "lon": 0.4135,
      "population": 128
    },
    {
      "insee": "16104",
      "nom": "Condac",
      "lat": 46.0303,
      "lon": 0.232,
      "population": 456
    },
    {
      "insee": "16105",
      "nom": "Condéon",
      "lat": 45.4034,
      "lon": -0.138,
      "population": 606
    },
    {
      "insee": "16106",
      "nom": "Confolens",
      "lat": 46.0245,
      "lon": 0.6639,
      "population": 2730
    },
    {
      "insee": "16046",
      "nom": "Coteaux-du-Blanzacais",
      "lat": 45.4586,
      "lon": 0.0214,
      "population": 1013
    },
    {
      "insee": "16107",
      "nom": "Coulgens",
      "lat": 45.8134,
      "lon": 0.2737,
      "population": 558
    },
    {
      "insee": "16108",
      "nom": "Coulonges",
      "lat": 45.8367,
      "lon": 0.0885,
      "population": 116
    },
    {
      "insee": "16109",
      "nom": "Courbillac",
      "lat": 45.7737,
      "lon": -0.1883,
      "population": 725
    },
    {
      "insee": "16110",
      "nom": "Courcôme",
      "lat": 45.9862,
      "lon": 0.1432,
      "population": 814
    },
    {
      "insee": "16111",
      "nom": "Courgeac",
      "lat": 45.3939,
      "lon": 0.0793,
      "population": 167
    },
    {
      "insee": "16112",
      "nom": "Courlac",
      "lat": 45.3005,
      "lon": 0.0852,
      "population": 59
    },
    {
      "insee": "16114",
      "nom": "Couture",
      "lat": 45.9296,
      "lon": 0.2886,
      "population": 169
    },
    {
      "insee": "16116",
      "nom": "Criteuil-la-Magdeleine",
      "lat": 45.5357,
      "lon": -0.215,
      "population": 405
    },
    {
      "insee": "16117",
      "nom": "Curac",
      "lat": 45.295,
      "lon": 0.0234,
      "population": 113
    },
    {
      "insee": "16118",
      "nom": "Deviat",
      "lat": 45.4112,
      "lon": 0.0174,
      "population": 135
    },
    {
      "insee": "16119",
      "nom": "Dignac",
      "lat": 45.5549,
      "lon": 0.2874,
      "population": 1362
    },
    {
      "insee": "16120",
      "nom": "Dirac",
      "lat": 45.6013,
      "lon": 0.241,
      "population": 1516
    },
    {
      "insee": "16121",
      "nom": "Douzat",
      "lat": 45.7038,
      "lon": -0.0018,
      "population": 438
    },
    {
      "insee": "16122",
      "nom": "Ébréon",
      "lat": 45.9453,
      "lon": 0.0293,
      "population": 139
    },
    {
      "insee": "16123",
      "nom": "Échallat",
      "lat": 45.7182,
      "lon": -0.0455,
      "population": 480
    },
    {
      "insee": "16124",
      "nom": "Écuras",
      "lat": 45.6833,
      "lon": 0.5661,
      "population": 579
    },
    {
      "insee": "16125",
      "nom": "Édon",
      "lat": 45.4879,
      "lon": 0.3526,
      "population": 272
    },
    {
      "insee": "16127",
      "nom": "Empuré",
      "lat": 46.0252,
      "lon": 0.0507,
      "population": 100
    },
    {
      "insee": "16128",
      "nom": "Épenède",
      "lat": 46.0669,
      "lon": 0.5374,
      "population": 206
    },
    {
      "insee": "16131",
      "nom": "Esse",
      "lat": 46.0243,
      "lon": 0.7221,
      "population": 518
    },
    {
      "insee": "16132",
      "nom": "Étagnac",
      "lat": 45.8927,
      "lon": 0.7833,
      "population": 982
    },
    {
      "insee": "16133",
      "nom": "Étriac",
      "lat": 45.5281,
      "lon": -0.0081,
      "population": 206
    },
    {
      "insee": "16134",
      "nom": "Exideuil-sur-Vienne",
      "lat": 45.8786,
      "lon": 0.6656,
      "population": 1035
    },
    {
      "insee": "16135",
      "nom": "Eymouthiers",
      "lat": 45.6459,
      "lon": 0.5478,
      "population": 315
    },
    {
      "insee": "16137",
      "nom": "Feuillade",
      "lat": 45.5919,
      "lon": 0.4638,
      "population": 283
    },
    {
      "insee": "16138",
      "nom": "Fléac",
      "lat": 45.6756,
      "lon": 0.0864,
      "population": 3861
    },
    {
      "insee": "16139",
      "nom": "Fleurac",
      "lat": 45.718,
      "lon": -0.0838,
      "population": 201
    },
    {
      "insee": "16141",
      "nom": "Fontenille",
      "lat": 45.9115,
      "lon": 0.171,
      "population": 353
    },
    {
      "insee": "16143",
      "nom": "Fouquebrune",
      "lat": 45.5238,
      "lon": 0.1993,
      "population": 714
    },
    {
      "insee": "16144",
      "nom": "Fouqueure",
      "lat": 45.887,
      "lon": 0.0709,
      "population": 429
    },
    {
      "insee": "16145",
      "nom": "Foussignac",
      "lat": 45.7145,
      "lon": -0.1268,
      "population": 661
    },
    {
      "insee": "16146",
      "nom": "Garat",
      "lat": 45.6221,
      "lon": 0.2605,
      "population": 2105
    },
    {
      "insee": "16148",
      "nom": "Genac-Bignac",
      "lat": 45.7986,
      "lon": 0.0297,
      "population": 974
    },
    {
      "insee": "16150",
      "nom": "Gensac-la-Pallue",
      "lat": 45.6587,
      "lon": -0.2637,
      "population": 1627
    },
    {
      "insee": "16151",
      "nom": "Genté",
      "lat": 45.6369,
      "lon": -0.3051,
      "population": 924
    },
    {
      "insee": "16152",
      "nom": "Gimeux",
      "lat": 45.6383,
      "lon": -0.367,
      "population": 742
    },
    {
      "insee": "16154",
      "nom": "Gond-Pontouvre",
      "lat": 45.6795,
      "lon": 0.1664,
      "population": 5862
    },
    {
      "insee": "16158",
      "nom": "Grassac",
      "lat": 45.5832,
      "lon": 0.393,
      "population": 308
    },
    {
      "insee": "16297",
      "nom": "Graves-Saint-Amant",
      "lat": 45.637,
      "lon": -0.1016,
      "population": 326
    },
    {
      "insee": "16160",
      "nom": "Guimps",
      "lat": 45.468,
      "lon": -0.2568,
      "population": 497
    },
    {
      "insee": "16161",
      "nom": "Guizengeard",
      "lat": 45.3106,
      "lon": -0.1237,
      "population": 166
    },
    {
      "insee": "16162",
      "nom": "Gurat",
      "lat": 45.4389,
      "lon": 0.2569,
      "population": 186
    },
    {
      "insee": "16163",
      "nom": "Hiersac",
      "lat": 45.6744,
      "lon": 0.0085,
      "population": 1142
    },
    {
      "insee": "16164",
      "nom": "Hiesse",
      "lat": 46.0494,
      "lon": 0.5814,
      "population": 238
    },
    {
      "insee": "16165",
      "nom": "Houlette",
      "lat": 45.7558,
      "lon": -0.2075,
      "population": 398
    },
    {
      "insee": "16167",
      "nom": "Jarnac",
      "lat": 45.6877,
      "lon": -0.1694,
      "population": 4486
    },
    {
      "insee": "16168",
      "nom": "Jauldes",
      "lat": 45.78,
      "lon": 0.2527,
      "population": 847
    },
    {
      "insee": "16169",
      "nom": "Javrezac",
      "lat": 45.6999,
      "lon": -0.3618,
      "population": 583
    },
    {
      "insee": "16170",
      "nom": "Juignac",
      "lat": 45.368,
      "lon": 0.1599,
      "population": 388
    },
    {
      "insee": "16171",
      "nom": "Juillac-le-Coq",
      "lat": 45.589,
      "lon": -0.2532,
      "population": 653
    },
    {
      "insee": "16173",
      "nom": "Juillé",
      "lat": 45.9267,
      "lon": 0.1432,
      "population": 173
    },
    {
      "insee": "16174",
      "nom": "Julienne",
      "lat": 45.6923,
      "lon": -0.2308,
      "population": 560
    },
    {
      "insee": "16166",
      "nom": "L'Isle-d'Espagnac",
      "lat": 45.6623,
      "lon": 0.199,
      "population": 5682
    },
    {
      "insee": "16393",
      "nom": "La Boixe",
      "lat": 45.7649,
      "lon": 0.134,
      "population": 2841
    },
    {
      "insee": "16081",
      "nom": "La Chapelle",
      "lat": 45.8295,
      "lon": 0.0534,
      "population": 175
    },
    {
      "insee": "16098",
      "nom": "La Chèvrerie",
      "lat": 46.0444,
      "lon": 0.134,
      "population": 136
    },
    {
      "insee": "16113",
      "nom": "La Couronne",
      "lat": 45.6095,
      "lon": 0.108,
      "population": 7765
    },
    {
      "insee": "16136",
      "nom": "La Faye",
      "lat": 46.0198,
      "lon": 0.1601,
      "population": 617
    },
    {
      "insee": "16142",
      "nom": "La Forêt-de-Tessé",
      "lat": 46.0755,
      "lon": 0.0773,
      "population": 206
    },
    {
      "insee": "16197",
      "nom": "La Magdeleine",
      "lat": 46.049,
      "lon": 0.0788,
      "population": 118
    },
    {
      "insee": "16281",
      "nom": "La Rochefoucauld-en-Angoumois",
      "lat": 45.736,
      "lon": 0.3583,
      "population": 4025
    },
    {
      "insee": "16282",
      "nom": "La Rochette",
      "lat": 45.7987,
      "lon": 0.3092,
      "population": 523
    },
    {
      "insee": "16377",
      "nom": "La Tâche",
      "lat": 45.8688,
      "lon": 0.3563,
      "population": 105
    },
    {
      "insee": "16176",
      "nom": "Lachaise",
      "lat": 45.5144,
      "lon": -0.2413,
      "population": 318
    },
    {
      "insee": "16177",
      "nom": "Ladiville",
      "lat": 45.5112,
      "lon": -0.0628,
      "population": 135
    },
    {
      "insee": "16178",
      "nom": "Lagarde-sur-le-Né",
      "lat": 45.5144,
      "lon": -0.2048,
      "population": 189
    },
    {
      "insee": "16180",
      "nom": "Laprade",
      "lat": 45.2792,
      "lon": 0.1866,
      "population": 248
    },
    {
      "insee": "16054",
      "nom": "Le Bouchage",
      "lat": 46.0477,
      "lon": 0.3766,
      "population": 175
    },
    {
      "insee": "16157",
      "nom": "Le Grand-Madieu",
      "lat": 45.9396,
      "lon": 0.4483,
      "population": 153
    },
    {
      "insee": "16188",
      "nom": "Le Lindois",
      "lat": 45.754,
      "lon": 0.5936,
      "population": 339
    },
    {
      "insee": "16380",
      "nom": "Le Tâtre",
      "lat": 45.3986,
      "lon": -0.2022,
      "population": 431
    },
    {
      "insee": "16403",
      "nom": "Le Vieux-Cérier",
      "lat": 45.9792,
      "lon": 0.4476,
      "population": 129
    },
    {
      "insee": "16002",
      "nom": "Les Adjots",
      "lat": 46.0781,
      "lon": 0.2028,
      "population": 538
    },
    {
      "insee": "16130",
      "nom": "Les Essards",
      "lat": 45.2368,
      "lon": 0.1099,
      "population": 175
    },
    {
      "insee": "16155",
      "nom": "Les Gours",
      "lat": 45.9585,
      "lon": -0.0662,
      "population": 91
    },
    {
      "insee": "16220",
      "nom": "Les Métairies",
      "lat": 45.7119,
      "lon": -0.1749,
      "population": 707
    },
    {
      "insee": "16261",
      "nom": "Les Pins",
      "lat": 45.8111,
      "lon": 0.3711,
      "population": 506
    },
    {
      "insee": "16183",
      "nom": "Lésignac-Durand",
      "lat": 45.8159,
      "lon": 0.6427,
      "population": 167
    },
    {
      "insee": "16181",
      "nom": "Lessac",
      "lat": 46.0701,
      "lon": 0.648,
      "population": 549
    },
    {
      "insee": "16182",
      "nom": "Lesterps",
      "lat": 46.0132,
      "lon": 0.7915,
      "population": 439
    },
    {
      "insee": "16184",
      "nom": "Lichères",
      "lat": 45.906,
      "lon": 0.2195,
      "population": 99
    },
    {
      "insee": "16185",
      "nom": "Ligné",
      "lat": 45.9157,
      "lon": 0.1041,
      "population": 144
    },
    {
      "insee": "16186",
      "nom": "Lignières-Ambleville",
      "lat": 45.5652,
      "lon": -0.1963,
      "population": 690
    },
    {
      "insee": "16187",
      "nom": "Linars",
      "lat": 45.6561,
      "lon": 0.0744,
      "population": 2115
    },
    {
      "insee": "16189",
      "nom": "Londigny",
      "lat": 46.0854,
      "lon": 0.1434,
      "population": 237
    },
    {
      "insee": "16190",
      "nom": "Longré",
      "lat": 45.9946,
      "lon": -0.0248,
      "population": 193
    },
    {
      "insee": "16191",
      "nom": "Lonnes",
      "lat": 45.9394,
      "lon": 0.1775,
      "population": 185
    },
    {
      "insee": "16193",
      "nom": "Louzac-Saint-André",
      "lat": 45.7251,
      "lon": -0.3955,
      "population": 946
    },
    {
      "insee": "16194",
      "nom": "Lupsault",
      "lat": 45.9378,
      "lon": -0.0593,
      "population": 109
    },
    {
      "insee": "16195",
      "nom": "Lussac",
      "lat": 45.8566,
      "lon": 0.4629,
      "population": 292
    },
    {
      "insee": "16196",
      "nom": "Luxé",
      "lat": 45.8958,
      "lon": 0.1237,
      "population": 748
    },
    {
      "insee": "16198",
      "nom": "Magnac-lès-Gardes",
      "lat": 45.5087,
      "lon": 0.2741,
      "population": 741
    },
    {
      "insee": "16199",
      "nom": "Magnac-sur-Touvre",
      "lat": 45.6558,
      "lon": 0.2384,
      "population": 3255
    },
    {
      "insee": "16200",
      "nom": "Maine-de-Boixe",
      "lat": 45.8486,
      "lon": 0.1775,
      "population": 473
    },
    {
      "insee": "16153",
      "nom": "Mainxe-Gondeville",
      "lat": 45.658,
      "lon": -0.1674,
      "population": 1195
    },
    {
      "insee": "16203",
      "nom": "Mainzac",
      "lat": 45.5544,
      "lon": 0.4779,
      "population": 125
    },
    {
      "insee": "16205",
      "nom": "Manot",
      "lat": 45.9278,
      "lon": 0.6157,
      "population": 555
    },
    {
      "insee": "16206",
      "nom": "Mansle-les-Fontaines",
      "lat": 45.8874,
      "lon": 0.1866,
      "population": 2088
    },
    {
      "insee": "16207",
      "nom": "Marcillac-Lanville",
      "lat": 45.8576,
      "lon": 0.0177,
      "population": 521
    },
    {
      "insee": "16208",
      "nom": "Mareuil",
      "lat": 45.7746,
      "lon": -0.1348,
      "population": 398
    },
    {
      "insee": "16209",
      "nom": "Marillac-le-Franc",
      "lat": 45.732,
      "lon": 0.4363,
      "population": 825
    },
    {
      "insee": "16210",
      "nom": "Marsac",
      "lat": 45.7412,
      "lon": 0.076,
      "population": 742
    },
    {
      "insee": "16211",
      "nom": "Marthon",
      "lat": 45.6154,
      "lon": 0.4477,
      "population": 554
    },
    {
      "insee": "16212",
      "nom": "Massignac",
      "lat": 45.7793,
      "lon": 0.6497,
      "population": 358
    },
    {
      "insee": "16213",
      "nom": "Mazerolles",
      "lat": 45.7412,
      "lon": 0.5201,
      "population": 314
    },
    {
      "insee": "16215",
      "nom": "Médillac",
      "lat": 45.2135,
      "lon": 0.0147,
      "population": 150
    },
    {
      "insee": "16216",
      "nom": "Mérignac",
      "lat": 45.6936,
      "lon": -0.0693,
      "population": 805
    },
    {
      "insee": "16217",
      "nom": "Merpins",
      "lat": 45.6704,
      "lon": -0.376,
      "population": 1085
    },
    {
      "insee": "16218",
      "nom": "Mesnac",
      "lat": 45.7744,
      "lon": -0.3433,
      "population": 404
    },
    {
      "insee": "16221",
      "nom": "Mons",
      "lat": 45.8734,
      "lon": -0.0318,
      "population": 240
    },
    {
      "insee": "16222",
      "nom": "Montboyer",
      "lat": 45.329,
      "lon": 0.0707,
      "population": 341
    },
    {
      "insee": "16223",
      "nom": "Montbron",
      "lat": 45.6731,
      "lon": 0.4999,
      "population": 2000
    },
    {
      "insee": "16225",
      "nom": "Montembœuf",
      "lat": 45.7745,
      "lon": 0.5499,
      "population": 654
    },
    {
      "insee": "16227",
      "nom": "Montignac-le-Coq",
      "lat": 45.3418,
      "lon": 0.2158,
      "population": 130
    },
    {
      "insee": "16229",
      "nom": "Montjean",
      "lat": 46.0831,
      "lon": 0.1122,
      "population": 237
    },
    {
      "insee": "16224",
      "nom": "Montmérac",
      "lat": 45.4404,
      "lon": -0.2169,
      "population": 730
    },
    {
      "insee": "16230",
      "nom": "Montmoreau",
      "lat": 45.4062,
      "lon": 0.1524,
      "population": 2403
    },
    {
      "insee": "16231",
      "nom": "Montrollet",
      "lat": 45.9949,
      "lon": 0.8988,
      "population": 323
    },
    {
      "insee": "16232",
      "nom": "Mornac",
      "lat": 45.6839,
      "lon": 0.2896,
      "population": 2107
    },
    {
      "insee": "16233",
      "nom": "Mosnac-Saint-Simeux",
      "lat": 45.627,
      "lon": -0.0276,
      "population": 950
    },
    {
      "insee": "16234",
      "nom": "Moulidars",
      "lat": 45.6678,
      "lon": -0.0428,
      "population": 662
    },
    {
      "insee": "16406",
      "nom": "Moulins-sur-Tardoire",
      "lat": 45.6883,
      "lon": 0.4037,
      "population": 821
    },
    {
      "insee": "16236",
      "nom": "Mouthiers-sur-Boëme",
      "lat": 45.5571,
      "lon": 0.1252,
      "population": 2359
    },
    {
      "insee": "16237",
      "nom": "Mouton",
      "lat": 45.8887,
      "lon": 0.2358,
      "population": 223
    },
    {
      "insee": "16239",
      "nom": "Mouzon",
      "lat": 45.7965,
      "lon": 0.6136,
      "population": 142
    },
    {
      "insee": "16240",
      "nom": "Nabinaud",
      "lat": 45.2919,
      "lon": 0.2092,
      "population": 99
    },
    {
      "insee": "16241",
      "nom": "Nanclars",
      "lat": 45.8446,
      "lon": 0.2226,
      "population": 211
    },
    {
      "insee": "16242",
      "nom": "Nanteuil-en-Vallée",
      "lat": 46.0091,
      "lon": 0.3208,
      "population": 1354
    },
    {
      "insee": "16243",
      "nom": "Nercillac",
      "lat": 45.7255,
      "lon": -0.2676,
      "population": 1051
    },
    {
      "insee": "16244",
      "nom": "Nersac",
      "lat": 45.6235,
      "lon": 0.0677,
      "population": 2246
    },
    {
      "insee": "16245",
      "nom": "Nieuil",
      "lat": 45.8846,
      "lon": 0.5217,
      "population": 883
    },
    {
      "insee": "16246",
      "nom": "Nonac",
      "lat": 45.4176,
      "lon": 0.0549,
      "population": 266
    },
    {
      "insee": "16248",
      "nom": "Oradour",
      "lat": 45.9134,
      "lon": -0.0379,
      "population": 163
    },
    {
      "insee": "16249",
      "nom": "Oradour-Fanais",
      "lat": 46.1126,
      "lon": 0.7818,
      "population": 342
    },
    {
      "insee": "16250",
      "nom": "Orgedeuil",
      "lat": 45.7016,
      "lon": 0.4867,
      "population": 207
    },
    {
      "insee": "16251",
      "nom": "Oriolles",
      "lat": 45.355,
      "lon": -0.1434,
      "population": 242
    },
    {
      "insee": "16252",
      "nom": "Orival",
      "lat": 45.2836,
      "lon": 0.0716,
      "population": 149
    },
    {
      "insee": "16253",
      "nom": "Paizay-Naudouin-Embourie",
      "lat": 46.0318,
      "lon": 0.0071,
      "population": 337
    },
    {
      "insee": "16254",
      "nom": "Palluaud",
      "lat": 45.3463,
      "lon": 0.241,
      "population": 215
    },
    {
      "insee": "16255",
      "nom": "Parzac",
      "lat": 45.9264,
      "lon": 0.4221,
      "population": 143
    },
    {
      "insee": "16256",
      "nom": "Passirac",
      "lat": 45.343,
      "lon": -0.0608,
      "population": 250
    },
    {
      "insee": "16258",
      "nom": "Pérignac",
      "lat": 45.4649,
      "lon": 0.0813,
      "population": 495
    },
    {
      "insee": "16260",
      "nom": "Pillac",
      "lat": 45.326,
      "lon": 0.1773,
      "population": 243
    },
    {
      "insee": "16263",
      "nom": "Plassac-Rouffiac",
      "lat": 45.5251,
      "lon": 0.0769,
      "population": 371
    },
    {
      "insee": "16264",
      "nom": "Pleuville",
      "lat": 46.0952,
      "lon": 0.4916,
      "population": 313
    },
    {
      "insee": "16267",
      "nom": "Poullignac",
      "lat": 45.3969,
      "lon": -0.0087,
      "population": 107
    },
    {
      "insee": "16268",
      "nom": "Poursac",
      "lat": 45.9607,
      "lon": 0.2649,
      "population": 185
    },
    {
      "insee": "16269",
      "nom": "Pranzac",
      "lat": 45.6745,
      "lon": 0.3475,
      "population": 872
    },
    {
      "insee": "16270",
      "nom": "Pressignac",
      "lat": 45.8177,
      "lon": 0.7371,
      "population": 398
    },
    {
      "insee": "16271",
      "nom": "Puymoyen",
      "lat": 45.611,
      "lon": 0.1704,
      "population": 2403
    },
    {
      "insee": "16272",
      "nom": "Puyréaux",
      "lat": 45.8636,
      "lon": 0.2121,
      "population": 582
    },
    {
      "insee": "16273",
      "nom": "Raix",
      "lat": 46.003,
      "lon": 0.1167,
      "population": 134
    },
    {
      "insee": "16275",
      "nom": "Ranville-Breuillaud",
      "lat": 45.9103,
      "lon": -0.1206,
      "population": 157
    },
    {
      "insee": "16276",
      "nom": "Reignac",
      "lat": 45.4271,
      "lon": -0.1752,
      "population": 712
    },
    {
      "insee": "16277",
      "nom": "Réparsac",
      "lat": 45.7354,
      "lon": -0.2537,
      "population": 631
    },
    {
      "insee": "16279",
      "nom": "Rioux-Martin",
      "lat": 45.2445,
      "lon": -0.0055,
      "population": 231
    },
    {
      "insee": "16280",
      "nom": "Rivières",
      "lat": 45.7657,
      "lon": 0.3492,
      "population": 2015
    },
    {
      "insee": "16283",
      "nom": "Ronsenac",
      "lat": 45.4566,
      "lon": 0.2425,
      "population": 571
    },
    {
      "insee": "16284",
      "nom": "Rouffiac",
      "lat": 45.2634,
      "lon": 0.1007,
      "population": 117
    },
    {
      "insee": "16285",
      "nom": "Rougnac",
      "lat": 45.5376,
      "lon": 0.3539,
      "population": 395
    },
    {
      "insee": "16286",
      "nom": "Rouillac",
      "lat": 45.7937,
      "lon": -0.0729,
      "population": 2919
    },
    {
      "insee": "16287",
      "nom": "Roullet-Saint-Estèphe",
      "lat": 45.5776,
      "lon": 0.0312,
      "population": 4357
    },
    {
      "insee": "16289",
      "nom": "Roussines",
      "lat": 45.7227,
      "lon": 0.622,
      "population": 298
    },
    {
      "insee": "16290",
      "nom": "Rouzède",
      "lat": 45.7146,
      "lon": 0.5664,
      "population": 231
    },
    {
      "insee": "16291",
      "nom": "Ruelle-sur-Touvre",
      "lat": 45.6865,
      "lon": 0.2252,
      "population": 7408
    },
    {
      "insee": "16292",
      "nom": "Ruffec",
      "lat": 46.0383,
      "lon": 0.1991,
      "population": 3449
    },
    {
      "insee": "16293",
      "nom": "Saint-Adjutory",
      "lat": 45.7694,
      "lon": 0.481,
      "population": 503
    },
    {
      "insee": "16295",
      "nom": "Saint-Amant-de-Boixe",
      "lat": 45.8061,
      "lon": 0.1347,
      "population": 1341
    },
    {
      "insee": "16298",
      "nom": "Saint-Amant-de-Nouère",
      "lat": 45.7344,
      "lon": -0.008,
      "population": 345
    },
    {
      "insee": "16301",
      "nom": "Saint-Aulais-la-Chapelle",
      "lat": 45.4463,
      "lon": -0.048,
      "population": 219
    },
    {
      "insee": "16302",
      "nom": "Saint-Avit",
      "lat": 45.2435,
      "lon": 0.0442,
      "population": 215
    },
    {
      "insee": "16303",
      "nom": "Saint-Bonnet",
      "lat": 45.4701,
      "lon": -0.0895,
      "population": 409
    },
    {
      "insee": "16304",
      "nom": "Saint-Brice",
      "lat": 45.6891,
      "lon": -0.2674,
      "population": 982
    },
    {
      "insee": "16306",
      "nom": "Saint-Christophe",
      "lat": 46.0028,
      "lon": 0.8565,
      "population": 334
    },
    {
      "insee": "16307",
      "nom": "Saint-Ciers-sur-Bonnieure",
      "lat": 45.859,
      "lon": 0.2435,
      "population": 312
    },
    {
      "insee": "16308",
      "nom": "Saint-Claud",
      "lat": 45.8971,
      "lon": 0.4834,
      "population": 1032
    },
    {
      "insee": "16310",
      "nom": "Saint-Coutant",
      "lat": 45.9923,
      "lon": 0.4641,
      "population": 206
    },
    {
      "insee": "16312",
      "nom": "Saint-Cybardeaux",
      "lat": 45.7727,
      "lon": -0.0257,
      "population": 771
    },
    {
      "insee": "16315",
      "nom": "Saint-Félix",
      "lat": 45.3692,
      "lon": 0.0123,
      "population": 102
    },
    {
      "insee": "16316",
      "nom": "Saint-Fort-sur-le-Né",
      "lat": 45.5817,
      "lon": -0.3072,
      "population": 386
    },
    {
      "insee": "16317",
      "nom": "Saint-Fraigne",
      "lat": 45.9501,
      "lon": -0.0159,
      "population": 427
    },
    {
      "insee": "16318",
      "nom": "Saint-Front",
      "lat": 45.8969,
      "lon": 0.2831,
      "population": 355
    },
    {
      "insee": "16320",
      "nom": "Saint-Genis-d'Hiersac",
      "lat": 45.7493,
      "lon": 0.0438,
      "population": 942
    },
    {
      "insee": "16321",
      "nom": "Saint-Georges",
      "lat": 45.9751,
      "lon": 0.2701,
      "population": 44
    },
    {
      "insee": "16323",
      "nom": "Saint-Germain-de-Montbron",
      "lat": 45.6357,
      "lon": 0.4129,
      "population": 500
    },
    {
      "insee": "16325",
      "nom": "Saint-Gourson",
      "lat": 45.951,
      "lon": 0.309,
      "population": 133
    },
    {
      "insee": "16326",
      "nom": "Saint-Groux",
      "lat": 45.8904,
      "lon": 0.1587,
      "population": 136
    },
    {
      "insee": "16329",
      "nom": "Saint-Laurent-de-Céris",
      "lat": 45.9461,
      "lon": 0.4977,
      "population": 720
    },
    {
      "insee": "16330",
      "nom": "Saint-Laurent-de-Cognac",
      "lat": 45.695,
      "lon": -0.3958,
      "population": 832
    },
    {
      "insee": "16331",
      "nom": "Saint-Laurent-des-Combes",
      "lat": 45.3537,
      "lon": 0.0353,
      "population": 97
    },
    {
      "insee": "16334",
      "nom": "Saint-Martial",
      "lat": 45.3715,
      "lon": 0.0638,
      "population": 122
    },
    {
      "insee": "16335",
      "nom": "Saint-Martin-du-Clocher",
      "lat": 46.0678,
      "lon": 0.1477,
      "population": 126
    },
    {
      "insee": "16336",
      "nom": "Saint-Mary",
      "lat": 45.8457,
      "lon": 0.3619,
      "population": 354
    },
    {
      "insee": "16337",
      "nom": "Saint-Maurice-des-Lions",
      "lat": 45.9634,
      "lon": 0.7026,
      "population": 892
    },
    {
      "insee": "16338",
      "nom": "Saint-Médard",
      "lat": 45.507,
      "lon": -0.1322,
      "population": 303
    },
    {
      "insee": "16340",
      "nom": "Saint-Même-les-Carrières",
      "lat": 45.6455,
      "lon": -0.1435,
      "population": 1023
    },
    {
      "insee": "16341",
      "nom": "Saint-Michel",
      "lat": 45.64,
      "lon": 0.111,
      "population": 3196
    },
    {
      "insee": "16342",
      "nom": "Saint-Palais-du-Né",
      "lat": 45.542,
      "lon": -0.2852,
      "population": 305
    },
    {
      "insee": "16343",
      "nom": "Saint-Preuil",
      "lat": 45.6001,
      "lon": -0.1773,
      "population": 306
    },
    {
      "insee": "16346",
      "nom": "Saint-Quentin-de-Chalais",
      "lat": 45.2452,
      "lon": 0.0769,
      "population": 241
    },
    {
      "insee": "16345",
      "nom": "Saint-Quentin-sur-Charente",
      "lat": 45.8392,
      "lon": 0.6768,
      "population": 199
    },
    {
      "insee": "16347",
      "nom": "Saint-Romain",
      "lat": 45.2846,
      "lon": 0.1322,
      "population": 514
    },
    {
      "insee": "16348",
      "nom": "Saint-Saturnin",
      "lat": 45.6702,
      "lon": 0.0424,
      "population": 1284
    },
    {
      "insee": "16350",
      "nom": "Saint-Séverin",
      "lat": 45.3118,
      "lon": 0.2427,
      "population": 784
    },
    {
      "insee": "16352",
      "nom": "Saint-Simon",
      "lat": 45.6549,
      "lon": -0.0763,
      "population": 233
    },
    {
      "insee": "16353",
      "nom": "Saint-Sornin",
      "lat": 45.6954,
      "lon": 0.4453,
      "population": 844
    },
    {
      "insee": "16356",
      "nom": "Saint-Sulpice-de-Ruffec",
      "lat": 45.9369,
      "lon": 0.3191,
      "population": 45
    },
    {
      "insee": "16357",
      "nom": "Saint-Vallier",
      "lat": 45.2833,
      "lon": -0.0731,
      "population": 139
    },
    {
      "insee": "16358",
      "nom": "Saint-Yrieix-sur-Charente",
      "lat": 45.6816,
      "lon": 0.126,
      "population": 7539
    },
    {
      "insee": "16349",
      "nom": "Sainte-Sévère",
      "lat": 45.7674,
      "lon": -0.257,
      "population": 519
    },
    {
      "insee": "16354",
      "nom": "Sainte-Souline",
      "lat": 45.3757,
      "lon": -0.0201,
      "population": 112
    },
    {
      "insee": "16359",
      "nom": "Salles-d'Angles",
      "lat": 45.621,
      "lon": -0.3481,
      "population": 1011
    },
    {
      "insee": "16360",
      "nom": "Salles-de-Barbezieux",
      "lat": 45.4542,
      "lon": -0.1259,
      "population": 407
    },
    {
      "insee": "16361",
      "nom": "Salles-de-Villefagnan",
      "lat": 45.9594,
      "lon": 0.1702,
      "population": 313
    },
    {
      "insee": "16362",
      "nom": "Salles-Lavalette",
      "lat": 45.3867,
      "lon": 0.2336,
      "population": 317
    },
    {
      "insee": "16363",
      "nom": "Saulgond",
      "lat": 45.9532,
      "lon": 0.7839,
      "population": 530
    },
    {
      "insee": "16364",
      "nom": "Sauvagnac",
      "lat": 45.7483,
      "lon": 0.6482,
      "population": 66
    },
    {
      "insee": "16365",
      "nom": "Sauvignac",
      "lat": 45.2662,
      "lon": -0.0828,
      "population": 95
    },
    {
      "insee": "16366",
      "nom": "Segonzac",
      "lat": 45.6142,
      "lon": -0.2124,
      "population": 2083
    },
    {
      "insee": "16368",
      "nom": "Sers",
      "lat": 45.582,
      "lon": 0.3172,
      "population": 896
    },
    {
      "insee": "16369",
      "nom": "Sigogne",
      "lat": 45.7318,
      "lon": -0.1737,
      "population": 961
    },
    {
      "insee": "16370",
      "nom": "Sireuil",
      "lat": 45.6217,
      "lon": 0.0206,
      "population": 1166
    },
    {
      "insee": "16372",
      "nom": "Souffrignac",
      "lat": 45.5886,
      "lon": 0.496,
      "population": 150
    },
    {
      "insee": "16373",
      "nom": "Souvigné",
      "lat": 45.9698,
      "lon": 0.0528,
      "population": 182
    },
    {
      "insee": "16374",
      "nom": "Soyaux",
      "lat": 45.6388,
      "lon": 0.2056,
      "population": 10087
    },
    {
      "insee": "16375",
      "nom": "Suaux",
      "lat": 45.8465,
      "lon": 0.5153,
      "population": 378
    },
    {
      "insee": "16378",
      "nom": "Taizé-Aizie",
      "lat": 46.0669,
      "lon": 0.2537,
      "population": 593
    },
    {
      "insee": "16379",
      "nom": "Taponnat-Fleurignac",
      "lat": 45.7713,
      "lon": 0.4226,
      "population": 1593
    },
    {
      "insee": "16192",
      "nom": "Terres-de-Haute-Charente",
      "lat": 45.8874,
      "lon": 0.583,
      "population": 3777
    },
    {
      "insee": "16381",
      "nom": "Theil-Rabier",
      "lat": 46.056,
      "lon": 0.0418,
      "population": 164
    },
    {
      "insee": "16382",
      "nom": "Torsac",
      "lat": 45.5664,
      "lon": 0.2082,
      "population": 740
    },
    {
      "insee": "16383",
      "nom": "Tourriers",
      "lat": 45.79,
      "lon": 0.1952,
      "population": 802
    },
    {
      "insee": "16384",
      "nom": "Touvérac",
      "lat": 45.3748,
      "lon": -0.2001,
      "population": 583
    },
    {
      "insee": "16385",
      "nom": "Touvre",
      "lat": 45.6581,
      "lon": 0.2695,
      "population": 1150
    },
    {
      "insee": "16387",
      "nom": "Triac-Lautrait",
      "lat": 45.6811,
      "lon": -0.1193,
      "population": 462
    },
    {
      "insee": "16388",
      "nom": "Trois-Palis",
      "lat": 45.6384,
      "lon": 0.0481,
      "population": 944
    },
    {
      "insee": "16389",
      "nom": "Turgon",
      "lat": 45.953,
      "lon": 0.4101,
      "population": 80
    },
    {
      "insee": "16390",
      "nom": "Tusson",
      "lat": 45.9304,
      "lon": 0.0734,
      "population": 240
    },
    {
      "insee": "16175",
      "nom": "Val des Vignes",
      "lat": 45.5065,
      "lon": -0.0142,
      "population": 1352
    },
    {
      "insee": "16339",
      "nom": "Val-d'Auge",
      "lat": 45.8397,
      "lon": -0.0866,
      "population": 792
    },
    {
      "insee": "16300",
      "nom": "Val-de-Bonnieure",
      "lat": 45.8451,
      "lon": 0.2901,
      "population": 1332
    },
    {
      "insee": "16097",
      "nom": "Val-de-Cognac",
      "lat": 45.748,
      "lon": -0.374,
      "population": 3471
    },
    {
      "insee": "16392",
      "nom": "Valence",
      "lat": 45.8852,
      "lon": 0.3199,
      "population": 192
    },
    {
      "insee": "16394",
      "nom": "Vaux-Lavalette",
      "lat": 45.4178,
      "lon": 0.2407,
      "population": 79
    },
    {
      "insee": "16395",
      "nom": "Vaux-Rouillac",
      "lat": 45.7431,
      "lon": -0.0891,
      "population": 294
    },
    {
      "insee": "16396",
      "nom": "Ventouse",
      "lat": 45.9097,
      "lon": 0.3228,
      "population": 122
    },
    {
      "insee": "16397",
      "nom": "Verdille",
      "lat": 45.8814,
      "lon": -0.0965,
      "population": 385
    },
    {
      "insee": "16398",
      "nom": "Verneuil",
      "lat": 45.7823,
      "lon": 0.6979,
      "population": 92
    },
    {
      "insee": "16399",
      "nom": "Verrières",
      "lat": 45.5605,
      "lon": -0.2619,
      "population": 310
    },
    {
      "insee": "16400",
      "nom": "Verteuil-sur-Charente",
      "lat": 45.9683,
      "lon": 0.2296,
      "population": 580
    },
    {
      "insee": "16401",
      "nom": "Vervant",
      "lat": 45.8335,
      "lon": 0.1318,
      "population": 147
    },
    {
      "insee": "16402",
      "nom": "Vibrac",
      "lat": 45.6433,
      "lon": -0.0588,
      "population": 307
    },
    {
      "insee": "16404",
      "nom": "Vieux-Ruffec",
      "lat": 46.0153,
      "lon": 0.3792,
      "population": 106
    },
    {
      "insee": "16405",
      "nom": "Vignolles",
      "lat": 45.5086,
      "lon": -0.0997,
      "population": 170
    },
    {
      "insee": "16408",
      "nom": "Villebois-Lavalette",
      "lat": 45.4781,
      "lon": 0.2818,
      "population": 717
    },
    {
      "insee": "16409",
      "nom": "Villefagnan",
      "lat": 46.0088,
      "lon": 0.0939,
      "population": 972
    },
    {
      "insee": "16412",
      "nom": "Villejoubert",
      "lat": 45.8084,
      "lon": 0.1739,
      "population": 381
    },
    {
      "insee": "16413",
      "nom": "Villiers-le-Roux",
      "lat": 46.0497,
      "lon": 0.1115,
      "population": 171
    },
    {
      "insee": "16414",
      "nom": "Villognon",
      "lat": 45.8614,
      "lon": 0.1059,
      "population": 336
    },
    {
      "insee": "16415",
      "nom": "Vindelle",
      "lat": 45.7195,
      "lon": 0.1086,
      "population": 1045
    },
    {
      "insee": "16416",
      "nom": "Vitrac-Saint-Vincent",
      "lat": 45.8011,
      "lon": 0.4972,
      "population": 489
    },
    {
      "insee": "16418",
      "nom": "Vœuil-et-Giget",
      "lat": 45.5908,
      "lon": 0.1591,
      "population": 1591
    },
    {
      "insee": "16419",
      "nom": "Vouharte",
      "lat": 45.8042,
      "lon": 0.0777,
      "population": 300
    },
    {
      "insee": "16420",
      "nom": "Voulgézac",
      "lat": 45.5091,
      "lon": 0.1304,
      "population": 244
    },
    {
      "insee": "16421",
      "nom": "Vouthon",
      "lat": 45.6591,
      "lon": 0.4482,
      "population": 405
    },
    {
      "insee": "16422",
      "nom": "Vouzan",
      "lat": 45.5967,
      "lon": 0.3652,
      "population": 818
    },
    {
      "insee": "16423",
      "nom": "Xambes",
      "lat": 45.8253,
      "lon": 0.1081,
      "population": 257
    },
    {
      "insee": "16424",
      "nom": "Yviers",
      "lat": 45.2711,
      "lon": -0.0191,
      "population": 541
    },
    {
      "insee": "16425",
      "nom": "Yvrac-et-Malleyrand",
      "lat": 45.7324,
      "lon": 0.4619,
      "population": 559
    }
  ]
}