{
  "country": "FR",
  "departmentCode": "39",
  "label": "Departement 39",
  "communes": [
    {
      "insee": "39001",
      "nom": "Abergement-la-Ronce",
      "lat": 47.0653,
      "lon": 5.3778,
      "population": 827
    },
    {
      "insee": "39002",
      "nom": "Abergement-le-Grand",
      "lat": 46.9141,
      "lon": 5.6785,
      "population": 61
    },
    {
      "insee": "39003",
      "nom": "Abergement-le-Petit",
      "lat": 46.9064,
      "lon": 5.6973,
      "population": 46
    },
    {
      "insee": "39004",
      "nom": "Abergement-lès-Thésy",
      "lat": 46.9109,
      "lon": 5.9447,
      "population": 46
    },
    {
      "insee": "39006",
      "nom": "Aiglepierre",
      "lat": 46.955,
      "lon": 5.8096,
      "population": 412
    },
    {
      "insee": "39007",
      "nom": "Alièze",
      "lat": 46.588,
      "lon": 5.5851,
      "population": 149
    },
    {
      "insee": "39008",
      "nom": "Amange",
      "lat": 47.1691,
      "lon": 5.5659,
      "population": 428
    },
    {
      "insee": "39009",
      "nom": "Andelot-en-Montagne",
      "lat": 46.8604,
      "lon": 5.9277,
      "population": 574
    },
    {
      "insee": "39010",
      "nom": "Andelot-Morval",
      "lat": 46.4235,
      "lon": 5.4278,
      "population": 90
    },
    {
      "insee": "39011",
      "nom": "Annoire",
      "lat": 46.9585,
      "lon": 5.2796,
      "population": 423
    },
    {
      "insee": "39013",
      "nom": "Arbois",
      "lat": 46.8876,
      "lon": 5.773,
      "population": 3114
    },
    {
      "insee": "39014",
      "nom": "Archelange",
      "lat": 47.1523,
      "lon": 5.5163,
      "population": 219
    },
    {
      "insee": "39015",
      "nom": "Ardon",
      "lat": 46.7719,
      "lon": 5.8773,
      "population": 109
    },
    {
      "insee": "39586",
      "nom": "Aresches",
      "lat": 46.8942,
      "lon": 5.9215,
      "population": 27
    },
    {
      "insee": "39016",
      "nom": "Arinthod",
      "lat": 46.3917,
      "lon": 5.5882,
      "population": 1149
    },
    {
      "insee": "39017",
      "nom": "Arlay",
      "lat": 46.767,
      "lon": 5.5383,
      "population": 1182
    },
    {
      "insee": "39018",
      "nom": "Aromas",
      "lat": 46.3135,
      "lon": 5.4871,
      "population": 580
    },
    {
      "insee": "39020",
      "nom": "Arsure-Arsurette",
      "lat": 46.7149,
      "lon": 6.0827,
      "population": 100
    },
    {
      "insee": "39022",
      "nom": "Asnans-Beauvoisin",
      "lat": 46.9385,
      "lon": 5.4001,
      "population": 713
    },
    {
      "insee": "39024",
      "nom": "Audelange",
      "lat": 47.1402,
      "lon": 5.5876,
      "population": 256
    },
    {
      "insee": "39025",
      "nom": "Augea",
      "lat": 46.5629,
      "lon": 5.3894,
      "population": 285
    },
    {
      "insee": "39026",
      "nom": "Augerans",
      "lat": 47.0268,
      "lon": 5.5867,
      "population": 188
    },
    {
      "insee": "39027",
      "nom": "Augisey",
      "lat": 46.556,
      "lon": 5.4947,
      "population": 191
    },
    {
      "insee": "39028",
      "nom": "Aumont",
      "lat": 46.9179,
      "lon": 5.636,
      "population": 447
    },
    {
      "insee": "39029",
      "nom": "Aumur",
      "lat": 47.0609,
      "lon": 5.333,
      "population": 393
    },
    {
      "insee": "39030",
      "nom": "Authume",
      "lat": 47.1242,
      "lon": 5.5075,
      "population": 906
    },
    {
      "insee": "39031",
      "nom": "Auxange",
      "lat": 47.1782,
      "lon": 5.6539,
      "population": 198
    },
    {
      "insee": "39032",
      "nom": "Avignon-lès-Saint-Claude",
      "lat": 46.4032,
      "lon": 5.8376,
      "population": 348
    },
    {
      "insee": "39034",
      "nom": "Balaiseaux",
      "lat": 46.9671,
      "lon": 5.4595,
      "population": 291
    },
    {
      "insee": "39035",
      "nom": "Balanod",
      "lat": 46.4558,
      "lon": 5.349,
      "population": 323
    },
    {
      "insee": "39037",
      "nom": "Bans",
      "lat": 46.9801,
      "lon": 5.5798,
      "population": 174
    },
    {
      "insee": "39038",
      "nom": "Barésia-sur-l'Ain",
      "lat": 46.5438,
      "lon": 5.7001,
      "population": 163
    },
    {
      "insee": "39040",
      "nom": "Barretaine",
      "lat": 46.8079,
      "lon": 5.7207,
      "population": 199
    },
    {
      "insee": "39041",
      "nom": "Baume-les-Messieurs",
      "lat": 46.7059,
      "lon": 5.6586,
      "population": 160
    },
    {
      "insee": "39042",
      "nom": "Baverans",
      "lat": 47.1065,
      "lon": 5.5364,
      "population": 498
    },
    {
      "insee": "39043",
      "nom": "Beaufort-Orbagna",
      "lat": 46.5854,
      "lon": 5.4355,
      "population": 1481
    },
    {
      "insee": "39045",
      "nom": "Beffia",
      "lat": 46.5306,
      "lon": 5.5487,
      "population": 86
    },
    {
      "insee": "39046",
      "nom": "Bellecombe",
      "lat": 46.3101,
      "lon": 5.911,
      "population": 73
    },
    {
      "insee": "39047",
      "nom": "Bellefontaine",
      "lat": 46.5584,
      "lon": 6.0791,
      "population": 494
    },
    {
      "insee": "39048",
      "nom": "Belmont",
      "lat": 47.0293,
      "lon": 5.606,
      "population": 258
    },
    {
      "insee": "39049",
      "nom": "Bersaillin",
      "lat": 46.8606,
      "lon": 5.595,
      "population": 396
    },
    {
      "insee": "39050",
      "nom": "Besain",
      "lat": 46.7857,
      "lon": 5.795,
      "population": 159
    },
    {
      "insee": "39051",
      "nom": "Biarne",
      "lat": 47.1452,
      "lon": 5.4528,
      "population": 433
    },
    {
      "insee": "39052",
      "nom": "Bief-des-Maisons",
      "lat": 46.7014,
      "lon": 6.049,
      "population": 78
    },
    {
      "insee": "39053",
      "nom": "Bief-du-Fourg",
      "lat": 46.8243,
      "lon": 6.1225,
      "population": 218
    },
    {
      "insee": "39054",
      "nom": "Biefmorin",
      "lat": 46.904,
      "lon": 5.5272,
      "population": 91
    },
    {
      "insee": "39055",
      "nom": "Billecul",
      "lat": 46.7457,
      "lon": 6.0575,
      "population": 60
    },
    {
      "insee": "39056",
      "nom": "Bletterans",
      "lat": 46.7299,
      "lon": 5.4322,
      "population": 1528
    },
    {
      "insee": "39057",
      "nom": "Blois-sur-Seille",
      "lat": 46.7479,
      "lon": 5.6677,
      "population": 102
    },
    {
      "insee": "39058",
      "nom": "Blye",
      "lat": 46.6284,
      "lon": 5.6977,
      "population": 143
    },
    {
      "insee": "39059",
      "nom": "Bois-d'Amont",
      "lat": 46.5372,
      "lon": 6.1272,
      "population": 1738
    },
    {
      "insee": "39060",
      "nom": "Bois-de-Gand",
      "lat": 46.8261,
      "lon": 5.5019,
      "population": 60
    },
    {
      "insee": "39061",
      "nom": "Boissia",
      "lat": 46.58,
      "lon": 5.7233,
      "population": 119
    },
    {
      "insee": "39063",
      "nom": "Bonlieu",
      "lat": 46.5949,
      "lon": 5.8461,
      "population": 223
    },
    {
      "insee": "39065",
      "nom": "Bonnefontaine",
      "lat": 46.7344,
      "lon": 5.7536,
      "population": 103
    },
    {
      "insee": "39066",
      "nom": "Bornay",
      "lat": 46.6128,
      "lon": 5.5545,
      "population": 184
    },
    {
      "insee": "39070",
      "nom": "Bourg-de-Sirod",
      "lat": 46.7298,
      "lon": 5.9569,
      "population": 88
    },
    {
      "insee": "39072",
      "nom": "Bracon",
      "lat": 46.9263,
      "lon": 5.8672,
      "population": 398
    },
    {
      "insee": "39073",
      "nom": "Brainans",
      "lat": 46.8708,
      "lon": 5.6278,
      "population": 200
    },
    {
      "insee": "39074",
      "nom": "Brans",
      "lat": 47.2238,
      "lon": 5.574,
      "population": 200
    },
    {
      "insee": "39077",
      "nom": "Bretenières",
      "lat": 46.9213,
      "lon": 5.5397,
      "population": 44
    },
    {
      "insee": "39078",
      "nom": "Brevans",
      "lat": 47.1023,
      "lon": 5.5246,
      "population": 668
    },
    {
      "insee": "39079",
      "nom": "Briod",
      "lat": 46.6622,
      "lon": 5.622,
      "population": 216
    },
    {
      "insee": "39080",
      "nom": "Broissia",
      "lat": 46.3562,
      "lon": 5.4335,
      "population": 57
    },
    {
      "insee": "39081",
      "nom": "Buvilly",
      "lat": 46.8698,
      "lon": 5.7266,
      "population": 383
    },
    {
      "insee": "39083",
      "nom": "Censeau",
      "lat": 46.8188,
      "lon": 6.0792,
      "population": 333
    },
    {
      "insee": "39084",
      "nom": "Cernans",
      "lat": 46.9344,
      "lon": 5.9404,
      "population": 147
    },
    {
      "insee": "39085",
      "nom": "Cerniébaud",
      "lat": 46.7378,
      "lon": 6.1252,
      "population": 91
    },
    {
      "insee": "39086",
      "nom": "Cernon",
      "lat": 46.4097,
      "lon": 5.6447,
      "population": 235
    },
    {
      "insee": "39088",
      "nom": "Cesancey",
      "lat": 46.6209,
      "lon": 5.4879,
      "population": 389
    },
    {
      "insee": "39090",
      "nom": "Chaînée-des-Coupis",
      "lat": 46.9213,
      "lon": 5.4341,
      "population": 183
    },
    {
      "insee": "39092",
      "nom": "Chambéria",
      "lat": 46.4698,
      "lon": 5.5712,
      "population": 200
    },
    {
      "insee": "39093",
      "nom": "Chamblay",
      "lat": 46.9915,
      "lon": 5.7035,
      "population": 423
    },
    {
      "insee": "39094",
      "nom": "Chamole",
      "lat": 46.8453,
      "lon": 5.7382,
      "population": 161
    },
    {
      "insee": "39095",
      "nom": "Champagne-sur-Loue",
      "lat": 47.0329,
      "lon": 5.8051,
      "population": 122
    },
    {
      "insee": "39096",
      "nom": "Champagney",
      "lat": 47.2601,
      "lon": 5.5079,
      "population": 473
    },
    {
      "insee": "39097",
      "nom": "Champagnole",
      "lat": 46.7423,
      "lon": 5.8938,
      "population": 8036
    },
    {
      "insee": "39099",
      "nom": "Champdivers",
      "lat": 47.0084,
      "lon": 5.3888,
      "population": 445
    },
    {
      "insee": "39100",
      "nom": "Champrougier",
      "lat": 46.8828,
      "lon": 5.5097,
      "population": 95
    },
    {
      "insee": "39101",
      "nom": "Champvans",
      "lat": 47.1017,
      "lon": 5.4167,
      "population": 1460
    },
    {
      "insee": "39102",
      "nom": "Chancia",
      "lat": 46.3462,
      "lon": 5.6423,
      "population": 211
    },
    {
      "insee": "39104",
      "nom": "Chapelle-Voland",
      "lat": 46.801,
      "lon": 5.3792,
      "population": 638
    },
    {
      "insee": "39105",
      "nom": "Chapois",
      "lat": 46.8312,
      "lon": 5.9661,
      "population": 219
    },
    {
      "insee": "39106",
      "nom": "Charchilla",
      "lat": 46.4667,
      "lon": 5.7147,
      "population": 302
    },
    {
      "insee": "39107",
      "nom": "Charcier",
      "lat": 46.63,
      "lon": 5.7596,
      "population": 136
    },
    {
      "insee": "39108",
      "nom": "Charency",
      "lat": 46.7668,
      "lon": 5.9904,
      "population": 55
    },
    {
      "insee": "39109",
      "nom": "Charézier",
      "lat": 46.6142,
      "lon": 5.7361,
      "population": 166
    },
    {
      "insee": "39111",
      "nom": "Charnod",
      "lat": 46.3386,
      "lon": 5.4939,
      "population": 37
    },
    {
      "insee": "39339",
      "nom": "Chassal-Molinges",
      "lat": 46.3568,
      "lon": 5.7812,
      "population": 1113
    },
    {
      "insee": "39114",
      "nom": "Château-Chalon",
      "lat": 46.7594,
      "lon": 5.6473,
      "population": 149
    },
    {
      "insee": "39118",
      "nom": "Châtel-de-Joux",
      "lat": 46.529,
      "lon": 5.8053,
      "population": 47
    },
    {
      "insee": "39117",
      "nom": "Chatelay",
      "lat": 47.0535,
      "lon": 5.6971,
      "population": 99
    },
    {
      "insee": "39120",
      "nom": "Châtelneuf",
      "lat": 46.664,
      "lon": 5.9117,
      "population": 120
    },
    {
      "insee": "39121",
      "nom": "Châtenois",
      "lat": 47.1543,
      "lon": 5.5493,
      "population": 411
    },
    {
      "insee": "39122",
      "nom": "Châtillon",
      "lat": 46.6658,
      "lon": 5.7314,
      "population": 122
    },
    {
      "insee": "39124",
      "nom": "Chaumergy",
      "lat": 46.8427,
      "lon": 5.4767,
      "population": 510
    },
    {
      "insee": "39127",
      "nom": "Chaussenans",
      "lat": 46.823,
      "lon": 5.7442,
      "population": 102
    },
    {
      "insee": "39128",
      "nom": "Chaussin",
      "lat": 46.9743,
      "lon": 5.4046,
      "population": 1606
    },
    {
      "insee": "39133",
      "nom": "Chaux-Champagny",
      "lat": 46.8814,
      "lon": 5.8805,
      "population": 73
    },
    {
      "insee": "39129",
      "nom": "Chaux-des-Crotenay",
      "lat": 46.6612,
      "lon": 5.9604,
      "population": 409
    },
    {
      "insee": "39134",
      "nom": "Chavéria",
      "lat": 46.498,
      "lon": 5.5589,
      "population": 201
    },
    {
      "insee": "39136",
      "nom": "Chemenot",
      "lat": 46.861,
      "lon": 5.5274,
      "population": 31
    },
    {
      "insee": "39138",
      "nom": "Chemin",
      "lat": 46.9758,
      "lon": 5.3171,
      "population": 312
    },
    {
      "insee": "39139",
      "nom": "Chêne-Bernard",
      "lat": 46.9162,
      "lon": 5.4744,
      "population": 80
    },
    {
      "insee": "39140",
      "nom": "Chêne-Sec",
      "lat": 46.8533,
      "lon": 5.4444,
      "population": 39
    },
    {
      "insee": "39141",
      "nom": "Chevigny",
      "lat": 47.1779,
      "lon": 5.475,
      "population": 255
    },
    {
      "insee": "39142",
      "nom": "Chevreaux",
      "lat": 46.4993,
      "lon": 5.4218,
      "population": 124
    },
    {
      "insee": "39143",
      "nom": "Chevrotaine",
      "lat": 46.6522,
      "lon": 5.8606,
      "population": 34
    },
    {
      "insee": "39145",
      "nom": "Chille",
      "lat": 46.6938,
      "lon": 5.5718,
      "population": 295
    },
    {
      "insee": "39146",
      "nom": "Chilly-le-Vignoble",
      "lat": 46.6599,
      "lon": 5.4954,
      "population": 598
    },
    {
      "insee": "39147",
      "nom": "Chilly-sur-Salins",
      "lat": 46.8722,
      "lon": 5.8553,
      "population": 95
    },
    {
      "insee": "39149",
      "nom": "Chissey-sur-Loue",
      "lat": 47.0579,
      "lon": 5.7459,
      "population": 323
    },
    {
      "insee": "39150",
      "nom": "Choisey",
      "lat": 47.0585,
      "lon": 5.4522,
      "population": 1021
    },
    {
      "insee": "39151",
      "nom": "Choux",
      "lat": 46.3029,
      "lon": 5.7715,
      "population": 139
    },
    {
      "insee": "39153",
      "nom": "Cize",
      "lat": 46.7209,
      "lon": 5.9212,
      "population": 797
    },
    {
      "insee": "39154",
      "nom": "Clairvaux-les-Lacs",
      "lat": 46.5629,
      "lon": 5.756,
      "population": 1426
    },
    {
      "insee": "39155",
      "nom": "Clucy",
      "lat": 46.9468,
      "lon": 5.9122,
      "population": 67
    },
    {
      "insee": "39156",
      "nom": "Cogna",
      "lat": 46.5866,
      "lon": 5.7751,
      "population": 234
    },
    {
      "insee": "39157",
      "nom": "Coiserette",
      "lat": 46.3365,
      "lon": 5.8258,
      "population": 42
    },
    {
      "insee": "39159",
      "nom": "Colonne",
      "lat": 46.8783,
      "lon": 5.5732,
      "population": 256
    },
    {
      "insee": "39160",
      "nom": "Commenailles",
      "lat": 46.8034,
      "lon": 5.436,
      "population": 898
    },
    {
      "insee": "39162",
      "nom": "Condamine",
      "lat": 46.6491,
      "lon": 5.4335,
      "population": 243
    },
    {
      "insee": "39163",
      "nom": "Condes",
      "lat": 46.3335,
      "lon": 5.616,
      "population": 117
    },
    {
      "insee": "39164",
      "nom": "Conliège",
      "lat": 46.6513,
      "lon": 5.6148,
      "population": 667
    },
    {
      "insee": "39165",
      "nom": "Conte",
      "lat": 46.7488,
      "lon": 6.0093,
      "population": 58
    },
    {
      "insee": "39166",
      "nom": "Cornod",
      "lat": 46.3054,
      "lon": 5.5496,
      "population": 213
    },
    {
      "insee": "39167",
      "nom": "Cosges",
      "lat": 46.7504,
      "lon": 5.3911,
      "population": 367
    },
    {
      "insee": "39491",
      "nom": "Coteaux du Lizon",
      "lat": 46.4133,
      "lon": 5.7985,
      "population": 2130
    },
    {
      "insee": "39168",
      "nom": "Courbette",
      "lat": 46.5992,
      "lon": 5.5694,
      "population": 44
    },
    {
      "insee": "39169",
      "nom": "Courbouzon",
      "lat": 46.6523,
      "lon": 5.5296,
      "population": 579
    },
    {
      "insee": "39170",
      "nom": "Courlans",
      "lat": 46.6754,
      "lon": 5.4837,
      "population": 938
    },
    {
      "insee": "39171",
      "nom": "Courlaoux",
      "lat": 46.668,
      "lon": 5.4504,
      "population": 1204
    },
    {
      "insee": "39172",
      "nom": "Courtefontaine",
      "lat": 47.1269,
      "lon": 5.7958,
      "population": 258
    },
    {
      "insee": "39173",
      "nom": "Cousance",
      "lat": 46.5365,
      "lon": 5.3795,
      "population": 1287
    },
    {
      "insee": "39174",
      "nom": "Coyrière",
      "lat": 46.3398,
      "lon": 5.8454,
      "population": 66
    },
    {
      "insee": "39175",
      "nom": "Coyron",
      "lat": 46.5108,
      "lon": 5.697,
      "population": 68
    },
    {
      "insee": "39176",
      "nom": "Cramans",
      "lat": 47.0067,
      "lon": 5.7856,
      "population": 509
    },
    {
      "insee": "39178",
      "nom": "Crans",
      "lat": 46.6957,
      "lon": 5.9829,
      "population": 87
    },
    {
      "insee": "39179",
      "nom": "Crenans",
      "lat": 46.4688,
      "lon": 5.739,
      "population": 228
    },
    {
      "insee": "39180",
      "nom": "Cressia",
      "lat": 46.5277,
      "lon": 5.4857,
      "population": 243
    },
    {
      "insee": "39182",
      "nom": "Crissey",
      "lat": 47.0511,
      "lon": 5.4766,
      "population": 687
    },
    {
      "insee": "39183",
      "nom": "Crotenay",
      "lat": 46.7571,
      "lon": 5.8127,
      "population": 610
    },
    {
      "insee": "39185",
      "nom": "Cuisia",
      "lat": 46.549,
      "lon": 5.4061,
      "population": 386
    },
    {
      "insee": "39187",
      "nom": "Cuvier",
      "lat": 46.8407,
      "lon": 6.0661,
      "population": 277
    },
    {
      "insee": "39188",
      "nom": "Dammartin-Marpain",
      "lat": 47.2535,
      "lon": 5.5522,
      "population": 340
    },
    {
      "insee": "39189",
      "nom": "Damparis",
      "lat": 47.0674,
      "lon": 5.3994,
      "population": 2587
    },
    {
      "insee": "39190",
      "nom": "Dampierre",
      "lat": 47.1767,
      "lon": 5.7453,
      "population": 1314
    },
    {
      "insee": "39191",
      "nom": "Darbonnay",
      "lat": 46.8261,
      "lon": 5.6061,
      "population": 78
    },
    {
      "insee": "39192",
      "nom": "Denezières",
      "lat": 46.6255,
      "lon": 5.8008,
      "population": 73
    },
    {
      "insee": "39194",
      "nom": "Desnes",
      "lat": 46.7682,
      "lon": 5.4669,
      "population": 494
    },
    {
      "insee": "39197",
      "nom": "Digna",
      "lat": 46.5166,
      "lon": 5.3828,
      "population": 371
    },
    {
      "insee": "39198",
      "nom": "Dole",
      "lat": 47.0739,
      "lon": 5.5024,
      "population": 23840
    },
    {
      "insee": "39199",
      "nom": "Domblans",
      "lat": 46.7682,
      "lon": 5.5898,
      "population": 1186
    },
    {
      "insee": "39200",
      "nom": "Dompierre-sur-Mont",
      "lat": 46.5645,
      "lon": 5.6148,
      "population": 210
    },
    {
      "insee": "39201",
      "nom": "Doucier",
      "lat": 46.6462,
      "lon": 5.7758,
      "population": 285
    },
    {
      "insee": "39202",
      "nom": "Dournon",
      "lat": 46.9329,
      "lon": 5.9704,
      "population": 142
    },
    {
      "insee": "39203",
      "nom": "Doye",
      "lat": 46.77,
      "lon": 6.012,
      "population": 110
    },
    {
      "insee": "39204",
      "nom": "Dramelay",
      "lat": 46.4038,
      "lon": 5.5283,
      "population": 27
    },
    {
      "insee": "39205",
      "nom": "Éclans-Nenon",
      "lat": 47.1028,
      "lon": 5.6082,
      "population": 371
    },
    {
      "insee": "39206",
      "nom": "Écleux",
      "lat": 46.9953,
      "lon": 5.7368,
      "population": 215
    },
    {
      "insee": "39207",
      "nom": "Écrille",
      "lat": 46.4997,
      "lon": 5.6322,
      "population": 89
    },
    {
      "insee": "39208",
      "nom": "Entre-deux-Monts",
      "lat": 46.6407,
      "lon": 5.9651,
      "population": 166
    },
    {
      "insee": "39210",
      "nom": "Équevillon",
      "lat": 46.7602,
      "lon": 5.9416,
      "population": 561
    },
    {
      "insee": "39214",
      "nom": "Esserval-Tartre",
      "lat": 46.8296,
      "lon": 6.0305,
      "population": 140
    },
    {
      "insee": "39216",
      "nom": "Étival",
      "lat": 46.4912,
      "lon": 5.7981,
      "population": 302
    },
    {
      "insee": "39218",
      "nom": "Étrepigney",
      "lat": 47.1126,
      "lon": 5.6814,
      "population": 431
    },
    {
      "insee": "39219",
      "nom": "Évans",
      "lat": 47.1794,
      "lon": 5.764,
      "population": 651
    },
    {
      "insee": "39220",
      "nom": "Falletans",
      "lat": 47.0839,
      "lon": 5.5683,
      "population": 392
    },
    {
      "insee": "39222",
      "nom": "Fay-en-Montagne",
      "lat": 46.7538,
      "lon": 5.7181,
      "population": 90
    },
    {
      "insee": "39227",
      "nom": "Foncine-le-Bas",
      "lat": 46.6324,
      "lon": 6.0294,
      "population": 203
    },
    {
      "insee": "39228",
      "nom": "Foncine-le-Haut",
      "lat": 46.663,
      "lon": 6.0611,
      "population": 1112
    },
    {
      "insee": "39229",
      "nom": "Fontainebrux",
      "lat": 46.6983,
      "lon": 5.4384,
      "population": 224
    },
    {
      "insee": "39230",
      "nom": "Fontenu",
      "lat": 46.6757,
      "lon": 5.807,
      "population": 72
    },
    {
      "insee": "39232",
      "nom": "Fort-du-Plasne",
      "lat": 46.6204,
      "lon": 5.9846,
      "population": 484
    },
    {
      "insee": "39233",
      "nom": "Foucherans",
      "lat": 47.086,
      "lon": 5.4386,
      "population": 2284
    },
    {
      "insee": "39234",
      "nom": "Foulenay",
      "lat": 46.8619,
      "lon": 5.4869,
      "population": 82
    },
    {
      "insee": "39235",
      "nom": "Fraisans",
      "lat": 47.1287,
      "lon": 5.7583,
      "population": 1160
    },
    {
      "insee": "39236",
      "nom": "Francheville",
      "lat": 46.8375,
      "lon": 5.5039,
      "population": 39
    },
    {
      "insee": "39237",
      "nom": "Fraroz",
      "lat": 46.7286,
      "lon": 6.0984,
      "population": 58
    },
    {
      "insee": "39238",
      "nom": "Frasne-les-Meulières",
      "lat": 47.1966,
      "lon": 5.5022,
      "population": 110
    },
    {
      "insee": "39241",
      "nom": "Frébuans",
      "lat": 46.6485,
      "lon": 5.4807,
      "population": 386
    },
    {
      "insee": "39244",
      "nom": "Frontenay",
      "lat": 46.7913,
      "lon": 5.6395,
      "population": 155
    },
    {
      "insee": "39245",
      "nom": "Gatey",
      "lat": 46.9494,
      "lon": 5.4601,
      "population": 373
    },
    {
      "insee": "39246",
      "nom": "Gendrey",
      "lat": 47.1988,
      "lon": 5.6847,
      "population": 436
    },
    {
      "insee": "39247",
      "nom": "Genod",
      "lat": 46.3587,
      "lon": 5.5271,
      "population": 73
    },
    {
      "insee": "39248",
      "nom": "Geraise",
      "lat": 46.959,
      "lon": 5.9541,
      "population": 41
    },
    {
      "insee": "39249",
      "nom": "Germigney",
      "lat": 47.0456,
      "lon": 5.6862,
      "population": 79
    },
    {
      "insee": "39250",
      "nom": "Geruge",
      "lat": 46.6238,
      "lon": 5.5296,
      "population": 193
    },
    {
      "insee": "39251",
      "nom": "Gevingey",
      "lat": 46.6362,
      "lon": 5.5073,
      "population": 442
    },
    {
      "insee": "39252",
      "nom": "Gevry",
      "lat": 47.0361,
      "lon": 5.4451,
      "population": 721
    },
    {
      "insee": "39253",
      "nom": "Gigny",
      "lat": 46.4531,
      "lon": 5.473,
      "population": 264
    },
    {
      "insee": "39254",
      "nom": "Gillois",
      "lat": 46.7315,
      "lon": 6.0311,
      "population": 124
    },
    {
      "insee": "39255",
      "nom": "Gizia",
      "lat": 46.5305,
      "lon": 5.4279,
      "population": 186
    },
    {
      "insee": "39258",
      "nom": "Grande-Rivière Château",
      "lat": 46.5287,
      "lon": 5.9091,
      "population": 644
    },
    {
      "insee": "39259",
      "nom": "Grange-de-Vaivre",
      "lat": 46.9966,
      "lon": 5.8411,
      "population": 45
    },
    {
      "insee": "39261",
      "nom": "Graye-et-Charnay",
      "lat": 46.4725,
      "lon": 5.4532,
      "population": 134
    },
    {
      "insee": "39262",
      "nom": "Gredisans",
      "lat": 47.1635,
      "lon": 5.5168,
      "population": 136
    },
    {
      "insee": "39263",
      "nom": "Grozon",
      "lat": 46.8881,
      "lon": 5.6909,
      "population": 386
    },
    {
      "insee": "39265",
      "nom": "Hautecour",
      "lat": 46.5587,
      "lon": 5.7808,
      "population": 196
    },
    {
      "insee": "39177",
      "nom": "Hauteroche",
      "lat": 46.7008,
      "lon": 5.6997,
      "population": 971
    },
    {
      "insee": "39368",
      "nom": "Hauts de Bienne",
      "lat": 46.5165,
      "lon": 6.0002,
      "population": 5032
    },
    {
      "insee": "39267",
      "nom": "Ivory",
      "lat": 46.8922,
      "lon": 5.8506,
      "population": 85
    },
    {
      "insee": "39268",
      "nom": "Ivrey",
      "lat": 46.9954,
      "lon": 5.8959,
      "population": 63
    },
    {
      "insee": "39269",
      "nom": "Jeurre",
      "lat": 46.3755,
      "lon": 5.7037,
      "population": 235
    },
    {
      "insee": "39270",
      "nom": "Jouhe",
      "lat": 47.1373,
      "lon": 5.4826,
      "population": 531
    },
    {
      "insee": "39217",
      "nom": "L'Étoile",
      "lat": 46.7171,
      "lon": 5.5332,
      "population": 567
    },
    {
      "insee": "39039",
      "nom": "La Barre",
      "lat": 47.1576,
      "lon": 5.6911,
      "population": 236
    },
    {
      "insee": "39062",
      "nom": "La Boissière",
      "lat": 46.4214,
      "lon": 5.5208,
      "population": 57
    },
    {
      "insee": "39076",
      "nom": "La Bretenière",
      "lat": 47.1293,
      "lon": 5.6676,
      "population": 211
    },
    {
      "insee": "39021",
      "nom": "La Chailleuse",
      "lat": 46.5822,
      "lon": 5.5233,
      "population": 587
    },
    {
      "insee": "39103",
      "nom": "La Chapelle-sur-Furieuse",
      "lat": 46.9846,
      "lon": 5.8605,
      "population": 295
    },
    {
      "insee": "39110",
      "nom": "La Charme",
      "lat": 46.8502,
      "lon": 5.5442,
      "population": 65
    },
    {
      "insee": "39112",
      "nom": "La Chassagne",
      "lat": 46.8682,
      "lon": 5.4535,
      "population": 110
    },
    {
      "insee": "39116",
      "nom": "La Châtelaine",
      "lat": 46.8621,
      "lon": 5.8257,
      "population": 151
    },
    {
      "insee": "39126",
      "nom": "La Chaumusse",
      "lat": 46.6012,
      "lon": 5.9428,
      "population": 389
    },
    {
      "insee": "39131",
      "nom": "La Chaux-du-Dombief",
      "lat": 46.6012,
      "lon": 5.9106,
      "population": 574
    },
    {
      "insee": "39132",
      "nom": "La Chaux-en-Bresse",
      "lat": 46.8262,
      "lon": 5.4764,
      "population": 30
    },
    {
      "insee": "39221",
      "nom": "La Favière",
      "lat": 46.7484,
      "lon": 6.037,
      "population": 33
    },
    {
      "insee": "39223",
      "nom": "La Ferté",
      "lat": 46.945,
      "lon": 5.6471,
      "population": 182
    },
    {
      "insee": "39239",
      "nom": "La Frasnée",
      "lat": 46.5604,
      "lon": 5.8002,
      "population": 41
    },
    {
      "insee": "39282",
      "nom": "La Latette",
      "lat": 46.7507,
      "lon": 6.0962,
      "population": 76
    },
    {
      "insee": "39305",
      "nom": "La Loye",
      "lat": 47.032,
      "lon": 5.5498,
      "population": 518
    },
    {
      "insee": "39317",
      "nom": "La Marre",
      "lat": 46.737,
      "lon": 5.7066,
      "population": 350
    },
    {
      "insee": "39413",
      "nom": "La Pesse",
      "lat": 46.2896,
      "lon": 5.8565,
      "population": 334
    },
    {
      "insee": "39460",
      "nom": "La Rixouse",
      "lat": 46.4682,
      "lon": 5.8711,
      "population": 184
    },
    {
      "insee": "39534",
      "nom": "La Tour-du-Meix",
      "lat": 46.5219,
      "lon": 5.6695,
      "population": 261
    },
    {
      "insee": "39559",
      "nom": "La Vieille-Loye",
      "lat": 47.0557,
      "lon": 5.6303,
      "population": 405
    },
    {
      "insee": "39271",
      "nom": "Lac-des-Rouges-Truites",
      "lat": 46.5975,
      "lon": 6.0124,
      "population": 397
    },
    {
      "insee": "39272",
      "nom": "Ladoye-sur-Seille",
      "lat": 46.7672,
      "lon": 5.6821,
      "population": 50
    },
    {
      "insee": "39274",
      "nom": "Lajoux",
      "lat": 46.3928,
      "lon": 6.0067,
      "population": 287
    },
    {
      "insee": "39275",
      "nom": "Lamoura",
      "lat": 46.4103,
      "lon": 5.9956,
      "population": 667
    },
    {
      "insee": "39278",
      "nom": "Largillay-Marsonnay",
      "lat": 46.5557,
      "lon": 5.6699,
      "population": 128
    },
    {
      "insee": "39279",
      "nom": "Larnaud",
      "lat": 46.7036,
      "lon": 5.4572,
      "population": 608
    },
    {
      "insee": "39280",
      "nom": "Larrivoire",
      "lat": 46.3381,
      "lon": 5.789,
      "population": 112
    },
    {
      "insee": "39283",
      "nom": "Lavancia-Epercy",
      "lat": 46.3364,
      "lon": 5.6793,
      "population": 621
    },
    {
      "insee": "39284",
      "nom": "Lavangeot",
      "lat": 47.1516,
      "lon": 5.6071,
      "population": 135
    },
    {
      "insee": "39285",
      "nom": "Lavans-lès-Dole",
      "lat": 47.1548,
      "lon": 5.6399,
      "population": 323
    },
    {
      "insee": "39286",
      "nom": "Lavans-lès-Saint-Claude",
      "lat": 46.3899,
      "lon": 5.7776,
      "population": 2351
    },
    {
      "insee": "39288",
      "nom": "Lavigny",
      "lat": 46.7175,
      "lon": 5.6054,
      "population": 380
    },
    {
      "insee": "39119",
      "nom": "Le Chateley",
      "lat": 46.8797,
      "lon": 5.5439,
      "population": 86
    },
    {
      "insee": "39193",
      "nom": "Le Deschaux",
      "lat": 46.9525,
      "lon": 5.5016,
      "population": 1036
    },
    {
      "insee": "39225",
      "nom": "Le Fied",
      "lat": 46.7761,
      "lon": 5.7092,
      "population": 186
    },
    {
      "insee": "39240",
      "nom": "Le Frasnois",
      "lat": 46.6347,
      "lon": 5.8931,
      "population": 170
    },
    {
      "insee": "39277",
      "nom": "Le Larderet",
      "lat": 46.8185,
      "lon": 5.945,
      "population": 49
    },
    {
      "insee": "39281",
      "nom": "Le Latet",
      "lat": 46.8035,
      "lon": 5.9422,
      "population": 91
    },
    {
      "insee": "39304",
      "nom": "Le Louverot",
      "lat": 46.7323,
      "lon": 5.5808,
      "population": 234
    },
    {
      "insee": "39406",
      "nom": "Le Pasquier",
      "lat": 46.7991,
      "lon": 5.8986,
      "population": 293
    },
    {
      "insee": "39421",
      "nom": "Le Pin",
      "lat": 46.7088,
      "lon": 5.5703,
      "population": 238
    },
    {
      "insee": "39545",
      "nom": "Le Vaudioux",
      "lat": 46.6832,
      "lon": 5.9262,
      "population": 168
    },
    {
      "insee": "39553",
      "nom": "Le Vernois",
      "lat": 46.7319,
      "lon": 5.5941,
      "population": 285
    },
    {
      "insee": "39575",
      "nom": "Le Villey",
      "lat": 46.847,
      "lon": 5.506,
      "population": 94
    },
    {
      "insee": "39289",
      "nom": "Lect",
      "lat": 46.3917,
      "lon": 5.6687,
      "population": 319
    },
    {
      "insee": "39291",
      "nom": "Lemuy",
      "lat": 46.892,
      "lon": 5.9861,
      "population": 255
    },
    {
      "insee": "39292",
      "nom": "Lent",
      "lat": 46.75,
      "lon": 5.977,
      "population": 128
    },
    {
      "insee": "39019",
      "nom": "Les Arsures",
      "lat": 46.9536,
      "lon": 5.7833,
      "population": 229
    },
    {
      "insee": "39068",
      "nom": "Les Bouchoux",
      "lat": 46.2977,
      "lon": 5.7998,
      "population": 315
    },
    {
      "insee": "39091",
      "nom": "Les Chalesmes",
      "lat": 46.6946,
      "lon": 6.0267,
      "population": 80
    },
    {
      "insee": "39184",
      "nom": "Les Crozets",
      "lat": 46.4654,
      "lon": 5.8042,
      "population": 194
    },
    {
      "insee": "39196",
      "nom": "Les Deux-Fays",
      "lat": 46.8856,
      "lon": 5.4877,
      "population": 118
    },
    {
      "insee": "39211",
      "nom": "Les Essards-Taignevaux",
      "lat": 46.904,
      "lon": 5.414,
      "population": 248
    },
    {
      "insee": "39266",
      "nom": "Les Hays",
      "lat": 46.9078,
      "lon": 5.3914,
      "population": 362
    },
    {
      "insee": "39373",
      "nom": "Les Moussières",
      "lat": 46.329,
      "lon": 5.8766,
      "population": 174
    },
    {
      "insee": "39381",
      "nom": "Les Nans",
      "lat": 46.7932,
      "lon": 5.9778,
      "population": 100
    },
    {
      "insee": "39424",
      "nom": "Les Planches-en-Montagne",
      "lat": 46.663,
      "lon": 5.9994,
      "population": 152
    },
    {
      "insee": "39425",
      "nom": "Les Planches-près-Arbois",
      "lat": 46.8785,
      "lon": 5.8093,
      "population": 88
    },
    {
      "insee": "39457",
      "nom": "Les Repôts",
      "lat": 46.6857,
      "lon": 5.4139,
      "population": 56
    },
    {
      "insee": "39470",
      "nom": "Les Rousses",
      "lat": 46.4911,
      "lon": 6.0731,
      "population": 3740
    },
    {
      "insee": "39378",
      "nom": "Les Trois-Châteaux",
      "lat": 46.4196,
      "lon": 5.3487,
      "population": 772
    },
    {
      "insee": "39293",
      "nom": "Leschères",
      "lat": 46.4634,
      "lon": 5.8288,
      "population": 192
    },
    {
      "insee": "39295",
      "nom": "Loisia",
      "lat": 46.4945,
      "lon": 5.4595,
      "population": 142
    },
    {
      "insee": "39296",
      "nom": "Lombard",
      "lat": 46.7815,
      "lon": 5.509,
      "population": 220
    },
    {
      "insee": "39297",
      "nom": "Longchaumois",
      "lat": 46.4676,
      "lon": 5.9619,
      "population": 1139
    },
    {
      "insee": "39298",
      "nom": "Longcochon",
      "lat": 46.7707,
      "lon": 6.0758,
      "population": 59
    },
    {
      "insee": "39299",
      "nom": "Longwy-sur-le-Doubs",
      "lat": 46.9619,
      "lon": 5.3529,
      "population": 496
    },
    {
      "insee": "39300",
      "nom": "Lons-le-Saunier",
      "lat": 46.6758,
      "lon": 5.5574,
      "population": 16618
    },
    {
      "insee": "39301",
      "nom": "Loulle",
      "lat": 46.7052,
      "lon": 5.8845,
      "population": 176
    },
    {
      "insee": "39302",
      "nom": "Louvatange",
      "lat": 47.1903,
      "lon": 5.7221,
      "population": 120
    },
    {
      "insee": "39306",
      "nom": "Macornay",
      "lat": 46.6416,
      "lon": 5.5435,
      "population": 1025
    },
    {
      "insee": "39307",
      "nom": "Maisod",
      "lat": 46.4754,
      "lon": 5.6938,
      "population": 326
    },
    {
      "insee": "39308",
      "nom": "Malange",
      "lat": 47.1855,
      "lon": 5.6132,
      "population": 321
    },
    {
      "insee": "39310",
      "nom": "Mantry",
      "lat": 46.7918,
      "lon": 5.5501,
      "population": 472
    },
    {
      "insee": "39312",
      "nom": "Marigna-sur-Valouse",
      "lat": 46.4465,
      "lon": 5.5281,
      "population": 107
    },
    {
      "insee": "39313",
      "nom": "Marigny",
      "lat": 46.6765,
      "lon": 5.7797,
      "population": 215
    },
    {
      "insee": "39314",
      "nom": "Marnézia",
      "lat": 46.576,
      "lon": 5.635,
      "population": 65
    },
    {
      "insee": "39315",
      "nom": "Marnoz",
      "lat": 46.9551,
      "lon": 5.8383,
      "population": 365
    },
    {
      "insee": "39318",
      "nom": "Martigna",
      "lat": 46.3891,
      "lon": 5.6987,
      "population": 215
    },
    {
      "insee": "39319",
      "nom": "Mathenay",
      "lat": 46.9325,
      "lon": 5.681,
      "population": 148
    },
    {
      "insee": "39320",
      "nom": "Maynal",
      "lat": 46.5653,
      "lon": 5.4104,
      "population": 322
    },
    {
      "insee": "39321",
      "nom": "Menétru-le-Vignoble",
      "lat": 46.7728,
      "lon": 5.6398,
      "population": 164
    },
    {
      "insee": "39322",
      "nom": "Menétrux-en-Joux",
      "lat": 46.6248,
      "lon": 5.8373,
      "population": 76
    },
    {
      "insee": "39323",
      "nom": "Menotey",
      "lat": 47.1679,
      "lon": 5.5023,
      "population": 293
    },
    {
      "insee": "39324",
      "nom": "Mérona",
      "lat": 46.5561,
      "lon": 5.6351,
      "population": 9
    },
    {
      "insee": "39325",
      "nom": "Mesnay",
      "lat": 46.9007,
      "lon": 5.8169,
      "population": 579
    },
    {
      "insee": "39326",
      "nom": "Mesnois",
      "lat": 46.592,
      "lon": 5.6803,
      "population": 162
    },
    {
      "insee": "39327",
      "nom": "Messia-sur-Sorne",
      "lat": 46.6625,
      "lon": 5.5158,
      "population": 911
    },
    {
      "insee": "39328",
      "nom": "Meussia",
      "lat": 46.497,
      "lon": 5.7379,
      "population": 438
    },
    {
      "insee": "39329",
      "nom": "Mièges",
      "lat": 46.7933,
      "lon": 6.0523,
      "population": 165
    },
    {
      "insee": "39330",
      "nom": "Miéry",
      "lat": 46.8069,
      "lon": 5.6675,
      "population": 133
    },
    {
      "insee": "39331",
      "nom": "Mignovillard",
      "lat": 46.7741,
      "lon": 6.14,
      "population": 902
    },
    {
      "insee": "39333",
      "nom": "Moirans-en-Montagne",
      "lat": 46.4418,
      "lon": 5.7369,
      "population": 2107
    },
    {
      "insee": "39334",
      "nom": "Moiron",
      "lat": 46.6347,
      "lon": 5.56,
      "population": 127
    },
    {
      "insee": "39335",
      "nom": "Moissey",
      "lat": 47.1871,
      "lon": 5.5326,
      "population": 567
    },
    {
      "insee": "39336",
      "nom": "Molain",
      "lat": 46.8256,
      "lon": 5.8206,
      "population": 111
    },
    {
      "insee": "39337",
      "nom": "Molamboz",
      "lat": 46.9521,
      "lon": 5.6806,
      "population": 88
    },
    {
      "insee": "39338",
      "nom": "Molay",
      "lat": 47.0155,
      "lon": 5.4228,
      "population": 505
    },
    {
      "insee": "39342",
      "nom": "Monay",
      "lat": 46.8383,
      "lon": 5.5955,
      "population": 123
    },
    {
      "insee": "39344",
      "nom": "Monnet-la-Ville",
      "lat": 46.7233,
      "lon": 5.8227,
      "population": 332
    },
    {
      "insee": "39343",
      "nom": "Monnetay",
      "lat": 46.4581,
      "lon": 5.5102,
      "population": 17
    },
    {
      "insee": "39345",
      "nom": "Monnières",
      "lat": 47.114,
      "lon": 5.4581,
      "population": 387
    },
    {
      "insee": "39365",
      "nom": "Mont-sous-Vaudrey",
      "lat": 46.9691,
      "lon": 5.5919,
      "population": 1309
    },
    {
      "insee": "39366",
      "nom": "Mont-sur-Monnet",
      "lat": 46.7056,
      "lon": 5.8415,
      "population": 199
    },
    {
      "insee": "39346",
      "nom": "Montagna-le-Reconduit",
      "lat": 46.4551,
      "lon": 5.3906,
      "population": 108
    },
    {
      "insee": "39348",
      "nom": "Montaigu",
      "lat": 46.6539,
      "lon": 5.5736,
      "population": 427
    },
    {
      "insee": "39349",
      "nom": "Montain",
      "lat": 46.7212,
      "lon": 5.5783,
      "population": 484
    },
    {
      "insee": "39350",
      "nom": "Montbarrey",
      "lat": 47.0181,
      "lon": 5.638,
      "population": 304
    },
    {
      "insee": "39351",
      "nom": "Montcusel",
      "lat": 46.3532,
      "lon": 5.6648,
      "population": 144
    },
    {
      "insee": "39352",
      "nom": "Monteplain",
      "lat": 47.1605,
      "lon": 5.7128,
      "population": 146
    },
    {
      "insee": "39353",
      "nom": "Montfleur",
      "lat": 46.3331,
      "lon": 5.4444,
      "population": 162
    },
    {
      "insee": "39354",
      "nom": "Montholier",
      "lat": 46.8931,
      "lon": 5.635,
      "population": 365
    },
    {
      "insee": "39355",
      "nom": "Montigny-lès-Arsures",
      "lat": 46.938,
      "lon": 5.776,
      "population": 236
    },
    {
      "insee": "39356",
      "nom": "Montigny-sur-l'Ain",
      "lat": 46.7054,
      "lon": 5.7938,
      "population": 217
    },
    {
      "insee": "39273",
      "nom": "Montlainsia",
      "lat": 46.3793,
      "lon": 5.4825,
      "population": 209
    },
    {
      "insee": "39359",
      "nom": "Montmarlon",
      "lat": 46.8731,
      "lon": 5.971,
      "population": 33
    },
    {
      "insee": "39360",
      "nom": "Montmirey-la-Ville",
      "lat": 47.2181,
      "lon": 5.5163,
      "population": 176
    },
    {
      "insee": "39361",
      "nom": "Montmirey-le-Château",
      "lat": 47.2267,
      "lon": 5.5299,
      "population": 198
    },
    {
      "insee": "39362",
      "nom": "Montmorot",
      "lat": 46.685,
      "lon": 5.5136,
      "population": 3261
    },
    {
      "insee": "39363",
      "nom": "Montrevel",
      "lat": 46.4267,
      "lon": 5.4927,
      "population": 83
    },
    {
      "insee": "39364",
      "nom": "Montrond",
      "lat": 46.7858,
      "lon": 5.8429,
      "population": 485
    },
    {
      "insee": "39367",
      "nom": "Morbier",
      "lat": 46.5587,
      "lon": 6.0186,
      "population": 2456
    },
    {
      "insee": "39370",
      "nom": "Mouchard",
      "lat": 46.9776,
      "lon": 5.7893,
      "population": 1095
    },
    {
      "insee": "39372",
      "nom": "Mournans-Charbonny",
      "lat": 46.7732,
      "lon": 5.9899,
      "population": 79
    },
    {
      "insee": "39375",
      "nom": "Moutonne",
      "lat": 46.5313,
      "lon": 5.569,
      "population": 129
    },
    {
      "insee": "39376",
      "nom": "Moutoux",
      "lat": 46.7894,
      "lon": 5.9387,
      "population": 76
    },
    {
      "insee": "39377",
      "nom": "Mutigney",
      "lat": 47.2844,
      "lon": 5.5322,
      "population": 176
    },
    {
      "insee": "39379",
      "nom": "Nance",
      "lat": 46.7506,
      "lon": 5.4217,
      "population": 544
    },
    {
      "insee": "39130",
      "nom": "Nanchez",
      "lat": 46.505,
      "lon": 5.8689,
      "population": 764
    },
    {
      "insee": "39380",
      "nom": "Nancuise",
      "lat": 46.4739,
      "lon": 5.5301,
      "population": 40
    },
    {
      "insee": "39385",
      "nom": "Neublans-Abergement",
      "lat": 46.9032,
      "lon": 5.3444,
      "population": 536
    },
    {
      "insee": "39386",
      "nom": "Neuvilley",
      "lat": 46.8922,
      "lon": 5.6003,
      "population": 87
    },
    {
      "insee": "39387",
      "nom": "Nevy-lès-Dole",
      "lat": 46.9991,
      "lon": 5.5151,
      "population": 288
    },
    {
      "insee": "39388",
      "nom": "Nevy-sur-Seille",
      "lat": 46.7385,
      "lon": 5.6478,
      "population": 199
    },
    {
      "insee": "39389",
      "nom": "Ney",
      "lat": 46.7322,
      "lon": 5.8825,
      "population": 599
    },
    {
      "insee": "39390",
      "nom": "Nogna",
      "lat": 46.6013,
      "lon": 5.6412,
      "population": 308
    },
    {
      "insee": "39391",
      "nom": "Nozeroy",
      "lat": 46.7683,
      "lon": 6.0371,
      "population": 393
    },
    {
      "insee": "39392",
      "nom": "Offlanges",
      "lat": 47.2013,
      "lon": 5.5635,
      "population": 199
    },
    {
      "insee": "39393",
      "nom": "Onglières",
      "lat": 46.8055,
      "lon": 6.0037,
      "population": 70
    },
    {
      "insee": "39394",
      "nom": "Onoz",
      "lat": 46.451,
      "lon": 5.6703,
      "population": 70
    },
    {
      "insee": "39396",
      "nom": "Orchamps",
      "lat": 47.1554,
      "lon": 5.6661,
      "population": 1045
    },
    {
      "insee": "39397",
      "nom": "Orgelet",
      "lat": 46.5064,
      "lon": 5.6151,
      "population": 1554
    },
    {
      "insee": "39398",
      "nom": "Ougney",
      "lat": 47.2416,
      "lon": 5.6607,
      "population": 431
    },
    {
      "insee": "39399",
      "nom": "Ounans",
      "lat": 46.9881,
      "lon": 5.6648,
      "population": 326
    },
    {
      "insee": "39400",
      "nom": "Our",
      "lat": 47.1077,
      "lon": 5.6489,
      "population": 147
    },
    {
      "insee": "39401",
      "nom": "Oussières",
      "lat": 46.9168,
      "lon": 5.5963,
      "population": 237
    },
    {
      "insee": "39402",
      "nom": "Pagney",
      "lat": 47.2519,
      "lon": 5.6994,
      "population": 392
    },
    {
      "insee": "39403",
      "nom": "Pagnoz",
      "lat": 46.9786,
      "lon": 5.8241,
      "population": 222
    },
    {
      "insee": "39404",
      "nom": "Pannessières",
      "lat": 46.6966,
      "lon": 5.5951,
      "population": 444
    },
    {
      "insee": "39405",
      "nom": "Parcey",
      "lat": 47.0221,
      "lon": 5.4768,
      "population": 993
    },
    {
      "insee": "39407",
      "nom": "Passenans",
      "lat": 46.805,
      "lon": 5.625,
      "population": 335
    },
    {
      "insee": "39408",
      "nom": "Patornay",
      "lat": 46.5879,
      "lon": 5.7093,
      "population": 154
    },
    {
      "insee": "39409",
      "nom": "Peintre",
      "lat": 47.1988,
      "lon": 5.4721,
      "population": 135
    },
    {
      "insee": "39411",
      "nom": "Perrigny",
      "lat": 46.6754,
      "lon": 5.5998,
      "population": 1551
    },
    {
      "insee": "39412",
      "nom": "Peseux",
      "lat": 46.9922,
      "lon": 5.3644,
      "population": 293
    },
    {
      "insee": "39415",
      "nom": "Petit-Noir",
      "lat": 46.9292,
      "lon": 5.3377,
      "population": 1056
    },
    {
      "insee": "39418",
      "nom": "Picarreau",
      "lat": 46.7552,
      "lon": 5.7593,
      "population": 98
    },
    {
      "insee": "39419",
      "nom": "Pillemoine",
      "lat": 46.7037,
      "lon": 5.9095,
      "population": 62
    },
    {
      "insee": "39420",
      "nom": "Pimorin",
      "lat": 46.4977,
      "lon": 5.4992,
      "population": 209
    },
    {
      "insee": "39422",
      "nom": "Plainoiseau",
      "lat": 46.7245,
      "lon": 5.556,
      "population": 502
    },
    {
      "insee": "39423",
      "nom": "Plaisia",
      "lat": 46.5201,
      "lon": 5.6367,
      "population": 96
    },
    {
      "insee": "39426",
      "nom": "Plasne",
      "lat": 46.7967,
      "lon": 5.6868,
      "population": 197
    },
    {
      "insee": "39427",
      "nom": "Plénise",
      "lat": 46.814,
      "lon": 6.0193,
      "population": 64
    },
    {
      "insee": "39428",
      "nom": "Plénisette",
      "lat": 46.8036,
      "lon": 6.016,
      "population": 20
    },
    {
      "insee": "39429",
      "nom": "Pleure",
      "lat": 46.9157,
      "lon": 5.4633,
      "population": 435
    },
    {
      "insee": "39430",
      "nom": "Plumont",
      "lat": 47.1118,
      "lon": 5.7192,
      "population": 105
    },
    {
      "insee": "39431",
      "nom": "Poids-de-Fiole",
      "lat": 46.5982,
      "lon": 5.6234,
      "population": 323
    },
    {
      "insee": "39432",
      "nom": "Pointre",
      "lat": 47.2214,
      "lon": 5.493,
      "population": 127
    },
    {
      "insee": "39434",
      "nom": "Poligny",
      "lat": 46.8204,
      "lon": 5.7245,
      "population": 3976
    },
    {
      "insee": "39436",
      "nom": "Pont-d'Héry",
      "lat": 46.8794,
      "lon": 5.9019,
      "population": 244
    },
    {
      "insee": "39435",
      "nom": "Pont-de-Poitte",
      "lat": 46.5724,
      "lon": 5.6874,
      "population": 624
    },
    {
      "insee": "39437",
      "nom": "Pont-du-Navoy",
      "lat": 46.7303,
      "lon": 5.7969,
      "population": 275
    },
    {
      "insee": "39439",
      "nom": "Port-Lesney",
      "lat": 47.0006,
      "lon": 5.8184,
      "population": 532
    },
    {
      "insee": "39441",
      "nom": "Prémanon",
      "lat": 46.4526,
      "lon": 6.0374,
      "population": 1265
    },
    {
      "insee": "39443",
      "nom": "Présilly",
      "lat": 46.5544,
      "lon": 5.584,
      "population": 111
    },
    {
      "insee": "39444",
      "nom": "Pretin",
      "lat": 46.9292,
      "lon": 5.8366,
      "population": 48
    },
    {
      "insee": "39445",
      "nom": "Publy",
      "lat": 46.6251,
      "lon": 5.6502,
      "population": 277
    },
    {
      "insee": "39446",
      "nom": "Pupillin",
      "lat": 46.8749,
      "lon": 5.7508,
      "population": 248
    },
    {
      "insee": "39447",
      "nom": "Quintigny",
      "lat": 46.7343,
      "lon": 5.5232,
      "population": 308
    },
    {
      "insee": "39448",
      "nom": "Rahon",
      "lat": 46.9887,
      "lon": 5.4654,
      "population": 444
    },
    {
      "insee": "39449",
      "nom": "Rainans",
      "lat": 47.1574,
      "lon": 5.4718,
      "population": 263
    },
    {
      "insee": "39451",
      "nom": "Ranchot",
      "lat": 47.1601,
      "lon": 5.7209,
      "population": 517
    },
    {
      "insee": "39452",
      "nom": "Rans",
      "lat": 47.137,
      "lon": 5.7142,
      "population": 540
    },
    {
      "insee": "39453",
      "nom": "Ravilloles",
      "lat": 46.432,
      "lon": 5.8005,
      "population": 434
    },
    {
      "insee": "39454",
      "nom": "Recanoz",
      "lat": 46.808,
      "lon": 5.508,
      "population": 94
    },
    {
      "insee": "39455",
      "nom": "Reithouse",
      "lat": 46.5635,
      "lon": 5.5528,
      "population": 55
    },
    {
      "insee": "39456",
      "nom": "Relans",
      "lat": 46.7675,
      "lon": 5.4359,
      "population": 348
    },
    {
      "insee": "39458",
      "nom": "Revigny",
      "lat": 46.6225,
      "lon": 5.6079,
      "population": 234
    },
    {
      "insee": "39461",
      "nom": "Rix",
      "lat": 46.7597,
      "lon": 6.0536,
      "population": 76
    },
    {
      "insee": "39462",
      "nom": "Rochefort-sur-Nenon",
      "lat": 47.1226,
      "lon": 5.5554,
      "population": 700
    },
    {
      "insee": "39463",
      "nom": "Rogna",
      "lat": 46.3271,
      "lon": 5.7433,
      "population": 234
    },
    {
      "insee": "39464",
      "nom": "Romain",
      "lat": 47.2076,
      "lon": 5.7191,
      "population": 249
    },
    {
      "insee": "39465",
      "nom": "Romange",
      "lat": 47.1618,
      "lon": 5.5954,
      "population": 204
    },
    {
      "insee": "39466",
      "nom": "Rosay",
      "lat": 46.5358,
      "lon": 5.455,
      "population": 116
    },
    {
      "insee": "39467",
      "nom": "Rotalier",
      "lat": 46.5836,
      "lon": 5.4761,
      "population": 151
    },
    {
      "insee": "39468",
      "nom": "Rothonay",
      "lat": 46.5138,
      "lon": 5.5262,
      "population": 128
    },
    {
      "insee": "39469",
      "nom": "Rouffange",
      "lat": 47.2256,
      "lon": 5.7092,
      "population": 120
    },
    {
      "insee": "39471",
      "nom": "Ruffey-sur-Seille",
      "lat": 46.7282,
      "lon": 5.503,
      "population": 738
    },
    {
      "insee": "39472",
      "nom": "Rye",
      "lat": 46.8797,
      "lon": 5.4265,
      "population": 222
    },
    {
      "insee": "39473",
      "nom": "Saffloz",
      "lat": 46.6684,
      "lon": 5.8613,
      "population": 91
    },
    {
      "insee": "39475",
      "nom": "Saint-Amour",
      "lat": 46.4365,
      "lon": 5.3373,
      "population": 2349
    },
    {
      "insee": "39476",
      "nom": "Saint-Aubin",
      "lat": 47.031,
      "lon": 5.3354,
      "population": 1871
    },
    {
      "insee": "39477",
      "nom": "Saint-Baraing",
      "lat": 46.9859,
      "lon": 5.437,
      "population": 257
    },
    {
      "insee": "39478",
      "nom": "Saint-Claude",
      "lat": 46.4098,
      "lon": 5.8802,
      "population": 8386
    },
    {
      "insee": "39479",
      "nom": "Saint-Cyr-Montmalin",
      "lat": 46.9608,
      "lon": 5.7232,
      "population": 245
    },
    {
      "insee": "39480",
      "nom": "Saint-Didier",
      "lat": 46.7102,
      "lon": 5.5095,
      "population": 277
    },
    {
      "insee": "39481",
      "nom": "Saint-Germain-en-Montagne",
      "lat": 46.7797,
      "lon": 5.9358,
      "population": 390
    },
    {
      "insee": "39137",
      "nom": "Saint-Hymetière-sur-Valouse",
      "lat": 46.3442,
      "lon": 5.5665,
      "population": 409
    },
    {
      "insee": "39486",
      "nom": "Saint-Lamain",
      "lat": 46.8055,
      "lon": 5.6005,
      "population": 128
    },
    {
      "insee": "39487",
      "nom": "Saint-Laurent-en-Grandvaux",
      "lat": 46.5703,
      "lon": 5.9597,
      "population": 1815
    },
    {
      "insee": "39489",
      "nom": "Saint-Lothain",
      "lat": 46.8281,
      "lon": 5.6412,
      "population": 463
    },
    {
      "insee": "39490",
      "nom": "Saint-Loup",
      "lat": 46.9954,
      "lon": 5.3122,
      "population": 248
    },
    {
      "insee": "39492",
      "nom": "Saint-Maur",
      "lat": 46.6078,
      "lon": 5.5969,
      "population": 212
    },
    {
      "insee": "39493",
      "nom": "Saint-Maurice-Crillat",
      "lat": 46.5648,
      "lon": 5.8282,
      "population": 247
    },
    {
      "insee": "39494",
      "nom": "Saint-Pierre",
      "lat": 46.5703,
      "lon": 5.8968,
      "population": 383
    },
    {
      "insee": "39495",
      "nom": "Saint-Thiébaud",
      "lat": 46.9745,
      "lon": 5.8845,
      "population": 71
    },
    {
      "insee": "39497",
      "nom": "Saizenay",
      "lat": 46.9668,
      "lon": 5.9356,
      "population": 101
    },
    {
      "insee": "39498",
      "nom": "Salans",
      "lat": 47.1608,
      "lon": 5.7915,
      "population": 658
    },
    {
      "insee": "39499",
      "nom": "Saligney",
      "lat": 47.2224,
      "lon": 5.6362,
      "population": 186
    },
    {
      "insee": "39500",
      "nom": "Salins-les-Bains",
      "lat": 46.9503,
      "lon": 5.9054,
      "population": 2390
    },
    {
      "insee": "39501",
      "nom": "Sampans",
      "lat": 47.1264,
      "lon": 5.442,
      "population": 1106
    },
    {
      "insee": "39502",
      "nom": "Santans",
      "lat": 47.0438,
      "lon": 5.6687,
      "population": 274
    },
    {
      "insee": "39503",
      "nom": "Sapois",
      "lat": 46.7448,
      "lon": 5.9461,
      "population": 408
    },
    {
      "insee": "39504",
      "nom": "Sarrogna",
      "lat": 46.476,
      "lon": 5.6173,
      "population": 228
    },
    {
      "insee": "39505",
      "nom": "Saugeot",
      "lat": 46.6061,
      "lon": 5.8218,
      "population": 56
    },
    {
      "insee": "39507",
      "nom": "Séligney",
      "lat": 46.9452,
      "lon": 5.5403,
      "population": 77
    },
    {
      "insee": "39508",
      "nom": "Sellières",
      "lat": 46.8255,
      "lon": 5.5573,
      "population": 737
    },
    {
      "insee": "39510",
      "nom": "Septmoncel les Molunes",
      "lat": 46.3559,
      "lon": 5.9265,
      "population": 812
    },
    {
      "insee": "39511",
      "nom": "Sergenaux",
      "lat": 46.8873,
      "lon": 5.463,
      "population": 65
    },
    {
      "insee": "39512",
      "nom": "Sergenon",
      "lat": 46.9033,
      "lon": 5.4685,
      "population": 58
    },
    {
      "insee": "39513",
      "nom": "Sermange",
      "lat": 47.1985,
      "lon": 5.6458,
      "population": 247
    },
    {
      "insee": "39514",
      "nom": "Serre-les-Moulières",
      "lat": 47.205,
      "lon": 5.6148,
      "population": 186
    },
    {
      "insee": "39517",
      "nom": "Sirod",
      "lat": 46.7287,
      "lon": 5.9897,
      "population": 543
    },
    {
      "insee": "39518",
      "nom": "Songeson",
      "lat": 46.6477,
      "lon": 5.8331,
      "population": 71
    },
    {
      "insee": "39519",
      "nom": "Soucia",
      "lat": 46.5374,
      "lon": 5.7557,
      "population": 175
    },
    {
      "insee": "39520",
      "nom": "Souvans",
      "lat": 46.9761,
      "lon": 5.5514,
      "population": 520
    },
    {
      "insee": "39522",
      "nom": "Supt",
      "lat": 46.855,
      "lon": 5.9868,
      "population": 110
    },
    {
      "insee": "39523",
      "nom": "Syam",
      "lat": 46.6969,
      "lon": 5.9534,
      "population": 184
    },
    {
      "insee": "39525",
      "nom": "Tassenières",
      "lat": 46.925,
      "lon": 5.5104,
      "population": 390
    },
    {
      "insee": "39526",
      "nom": "Tavaux",
      "lat": 47.0396,
      "lon": 5.4026,
      "population": 3888
    },
    {
      "insee": "39527",
      "nom": "Taxenne",
      "lat": 47.2212,
      "lon": 5.6857,
      "population": 126
    },
    {
      "insee": "39528",
      "nom": "Thervay",
      "lat": 47.2375,
      "lon": 5.6137,
      "population": 384
    },
    {
      "insee": "39529",
      "nom": "Thésy",
      "lat": 46.9032,
      "lon": 5.9267,
      "population": 70
    },
    {
      "insee": "39530",
      "nom": "Thoirette-Coisia",
      "lat": 46.2901,
      "lon": 5.554,
      "population": 809
    },
    {
      "insee": "39531",
      "nom": "Thoiria",
      "lat": 46.5195,
      "lon": 5.7466,
      "population": 183
    },
    {
      "insee": "39532",
      "nom": "Thoissia",
      "lat": 46.4276,
      "lon": 5.3931,
      "population": 34
    },
    {
      "insee": "39533",
      "nom": "Toulouse-le-Château",
      "lat": 46.8221,
      "lon": 5.5845,
      "population": 204
    },
    {
      "insee": "39535",
      "nom": "Tourmont",
      "lat": 46.8655,
      "lon": 5.665,
      "population": 437
    },
    {
      "insee": "39537",
      "nom": "Trenal",
      "lat": 46.6358,
      "lon": 5.4628,
      "population": 472
    },
    {
      "insee": "39538",
      "nom": "Uxelles",
      "lat": 46.6027,
      "lon": 5.7938,
      "population": 63
    },
    {
      "insee": "39539",
      "nom": "Vadans",
      "lat": 46.9402,
      "lon": 5.7046,
      "population": 306
    },
    {
      "insee": "39485",
      "nom": "Val Suran",
      "lat": 46.3868,
      "lon": 5.4415,
      "population": 777
    },
    {
      "insee": "39209",
      "nom": "Val-d'Épy",
      "lat": 46.3888,
      "lon": 5.3975,
      "population": 322
    },
    {
      "insee": "39576",
      "nom": "Val-Sonnette",
      "lat": 46.6047,
      "lon": 5.4619,
      "population": 1318
    },
    {
      "insee": "39540",
      "nom": "Valempoulières",
      "lat": 46.8267,
      "lon": 5.877,
      "population": 213
    },
    {
      "insee": "39290",
      "nom": "Valzin en Petite Montagne",
      "lat": 46.4325,
      "lon": 5.5863,
      "population": 445
    },
    {
      "insee": "39543",
      "nom": "Vannoz",
      "lat": 46.7758,
      "lon": 5.911,
      "population": 224
    },
    {
      "insee": "39546",
      "nom": "Vaudrey",
      "lat": 46.9662,
      "lon": 5.6291,
      "population": 355
    },
    {
      "insee": "39547",
      "nom": "Vaux-lès-Saint-Claude",
      "lat": 46.3546,
      "lon": 5.7309,
      "population": 678
    },
    {
      "insee": "39550",
      "nom": "Verges",
      "lat": 46.6578,
      "lon": 5.6873,
      "population": 204
    },
    {
      "insee": "39551",
      "nom": "Véria",
      "lat": 46.4595,
      "lon": 5.421,
      "population": 111
    },
    {
      "insee": "39552",
      "nom": "Vernantois",
      "lat": 46.623,
      "lon": 5.5812,
      "population": 298
    },
    {
      "insee": "39554",
      "nom": "Vers-en-Montagne",
      "lat": 46.8222,
      "lon": 5.9111,
      "population": 235
    },
    {
      "insee": "39555",
      "nom": "Vers-sous-Sellières",
      "lat": 46.8227,
      "lon": 5.5266,
      "population": 223
    },
    {
      "insee": "39556",
      "nom": "Vertamboz",
      "lat": 46.6007,
      "lon": 5.7438,
      "population": 83
    },
    {
      "insee": "39557",
      "nom": "Vescles",
      "lat": 46.3547,
      "lon": 5.6105,
      "population": 181
    },
    {
      "insee": "39558",
      "nom": "Vevy",
      "lat": 46.667,
      "lon": 5.6688,
      "population": 301
    },
    {
      "insee": "39560",
      "nom": "Villard-Saint-Sauveur",
      "lat": 46.3631,
      "lon": 5.8627,
      "population": 585
    },
    {
      "insee": "39561",
      "nom": "Villards-d'Héria",
      "lat": 46.4046,
      "lon": 5.7394,
      "population": 397
    },
    {
      "insee": "39565",
      "nom": "Villeneuve-d'Aval",
      "lat": 46.9704,
      "lon": 5.7505,
      "population": 96
    },
    {
      "insee": "39567",
      "nom": "Villeneuve-sous-Pymont",
      "lat": 46.6945,
      "lon": 5.553,
      "population": 317
    },
    {
      "insee": "39569",
      "nom": "Villers-Farlay",
      "lat": 46.9924,
      "lon": 5.7597,
      "population": 635
    },
    {
      "insee": "39570",
      "nom": "Villers-les-Bois",
      "lat": 46.9222,
      "lon": 5.5712,
      "population": 226
    },
    {
      "insee": "39571",
      "nom": "Villers-Robert",
      "lat": 46.9646,
      "lon": 5.5214,
      "population": 236
    },
    {
      "insee": "39568",
      "nom": "Villerserine",
      "lat": 46.855,
      "lon": 5.6399,
      "population": 33
    },
    {
      "insee": "39572",
      "nom": "Villette-lès-Arbois",
      "lat": 46.9345,
      "lon": 5.7427,
      "population": 352
    },
    {
      "insee": "39573",
      "nom": "Villette-lès-Dole",
      "lat": 47.0462,
      "lon": 5.4918,
      "population": 806
    },
    {
      "insee": "39574",
      "nom": "Villevieux",
      "lat": 46.7276,
      "lon": 5.4449,
      "population": 705
    },
    {
      "insee": "39577",
      "nom": "Vincent-Froideville",
      "lat": 46.7928,
      "lon": 5.4803,
      "population": 381
    },
    {
      "insee": "39579",
      "nom": "Viry",
      "lat": 46.3035,
      "lon": 5.7312,
      "population": 904
    },
    {
      "insee": "39581",
      "nom": "Vitreux",
      "lat": 47.2529,
      "lon": 5.6708,
      "population": 250
    },
    {
      "insee": "39582",
      "nom": "Voiteur",
      "lat": 46.7431,
      "lon": 5.6014,
      "population": 788
    },
    {
      "insee": "39583",
      "nom": "Vosbles-Valfin",
      "lat": 46.3465,
      "lon": 5.5225,
      "population": 185
    },
    {
      "insee": "39584",
      "nom": "Vriange",
      "lat": 47.1832,
      "lon": 5.5848,
      "population": 163
    },
    {
      "insee": "39585",
      "nom": "Vulvoz",
      "lat": 46.3209,
      "lon": 5.7858,
      "population": 25
    }
  ]
}