{
  "country": "FR",
  "departmentCode": "49",
  "label": "Departement 49",
  "communes": [
    {
      "insee": "49002",
      "nom": "Allonnes",
      "lat": 47.3069,
      "lon": 0.0081,
      "population": 2911
    },
    {
      "insee": "49007",
      "nom": "Angers",
      "lat": 47.4819,
      "lon": -0.5629,
      "population": 159022
    },
    {
      "insee": "49008",
      "nom": "Angrie",
      "lat": 47.5819,
      "lon": -0.9677,
      "population": 913
    },
    {
      "insee": "49009",
      "nom": "Antoigné",
      "lat": 47.0793,
      "lon": -0.1382,
      "population": 441
    },
    {
      "insee": "49010",
      "nom": "Armaillé",
      "lat": 47.7135,
      "lon": -1.1425,
      "population": 320
    },
    {
      "insee": "49011",
      "nom": "Artannes-sur-Thouet",
      "lat": 47.2042,
      "lon": -0.0978,
      "population": 405
    },
    {
      "insee": "49012",
      "nom": "Aubigné-sur-Layon",
      "lat": 47.2127,
      "lon": -0.4745,
      "population": 347
    },
    {
      "insee": "49015",
      "nom": "Avrillé",
      "lat": 47.5027,
      "lon": -0.6011,
      "population": 15251
    },
    {
      "insee": "49017",
      "nom": "Baracé",
      "lat": 47.6416,
      "lon": -0.3563,
      "population": 636
    },
    {
      "insee": "49018",
      "nom": "Baugé-en-Anjou",
      "lat": 47.5598,
      "lon": -0.1143,
      "population": 11712
    },
    {
      "insee": "49020",
      "nom": "Beaucouzé",
      "lat": 47.4742,
      "lon": -0.6358,
      "population": 5732
    },
    {
      "insee": "49021",
      "nom": "Beaufort-en-Anjou",
      "lat": 47.4374,
      "lon": -0.2063,
      "population": 6901
    },
    {
      "insee": "49022",
      "nom": "Beaulieu-sur-Layon",
      "lat": 47.3147,
      "lon": -0.6037,
      "population": 1345
    },
    {
      "insee": "49023",
      "nom": "Beaupréau-en-Mauges",
      "lat": 47.2028,
      "lon": -0.9844,
      "population": 23989
    },
    {
      "insee": "49026",
      "nom": "Bécon-les-Granits",
      "lat": 47.5044,
      "lon": -0.8015,
      "population": 2811
    },
    {
      "insee": "49027",
      "nom": "Bégrolles-en-Mauges",
      "lat": 47.1331,
      "lon": -0.9311,
      "population": 2110
    },
    {
      "insee": "49028",
      "nom": "Béhuard",
      "lat": 47.3796,
      "lon": -0.6481,
      "population": 115
    },
    {
      "insee": "49345",
      "nom": "Bellevigne-en-Layon",
      "lat": 47.2719,
      "lon": -0.5395,
      "population": 5922
    },
    {
      "insee": "49060",
      "nom": "Bellevigne-les-Châteaux",
      "lat": 47.1781,
      "lon": -0.0449,
      "population": 3435
    },
    {
      "insee": "49029",
      "nom": "Blaison-Saint-Sulpice",
      "lat": 47.3785,
      "lon": -0.3836,
      "population": 1337
    },
    {
      "insee": "49030",
      "nom": "Blou",
      "lat": 47.3607,
      "lon": -0.0534,
      "population": 929
    },
    {
      "insee": "49035",
      "nom": "Bouchemaine",
      "lat": 47.4288,
      "lon": -0.6241,
      "population": 6580
    },
    {
      "insee": "49036",
      "nom": "Bouillé-Ménard",
      "lat": 47.7406,
      "lon": -0.9661,
      "population": 785
    },
    {
      "insee": "49038",
      "nom": "Bourg-l'Évêque",
      "lat": 47.7327,
      "lon": -1.0184,
      "population": 236
    },
    {
      "insee": "49041",
      "nom": "Brain-sur-Allonnes",
      "lat": 47.3041,
      "lon": 0.0743,
      "population": 2056
    },
    {
      "insee": "49048",
      "nom": "Briollay",
      "lat": 47.5758,
      "lon": -0.4954,
      "population": 3225
    },
    {
      "insee": "49050",
      "nom": "Brissac Loire Aubance",
      "lat": 47.3392,
      "lon": -0.4087,
      "population": 10878
    },
    {
      "insee": "49053",
      "nom": "Brossay",
      "lat": 47.1698,
      "lon": -0.2155,
      "population": 340
    },
    {
      "insee": "49054",
      "nom": "Candé",
      "lat": 47.5596,
      "lon": -1.0335,
      "population": 2801
    },
    {
      "insee": "49055",
      "nom": "Cantenay-Épinard",
      "lat": 47.54,
      "lon": -0.5635,
      "population": 2415
    },
    {
      "insee": "49056",
      "nom": "Carbay",
      "lat": 47.7308,
      "lon": -1.2257,
      "population": 277
    },
    {
      "insee": "49057",
      "nom": "Cernusson",
      "lat": 47.1681,
      "lon": -0.4849,
      "population": 329
    },
    {
      "insee": "49061",
      "nom": "Challain-la-Potherie",
      "lat": 47.6309,
      "lon": -1.0816,
      "population": 827
    },
    {
      "insee": "49063",
      "nom": "Chalonnes-sur-Loire",
      "lat": 47.3496,
      "lon": -0.7729,
      "population": 6659
    },
    {
      "insee": "49064",
      "nom": "Chambellay",
      "lat": 47.6901,
      "lon": -0.6948,
      "population": 411
    },
    {
      "insee": "49068",
      "nom": "Champtocé-sur-Loire",
      "lat": 47.4284,
      "lon": -0.8717,
      "population": 1829
    },
    {
      "insee": "49070",
      "nom": "Chanteloup-les-Bois",
      "lat": 47.0859,
      "lon": -0.6911,
      "population": 734
    },
    {
      "insee": "49082",
      "nom": "Chaudefonds-sur-Layon",
      "lat": 47.3267,
      "lon": -0.7284,
      "population": 949
    },
    {
      "insee": "49089",
      "nom": "Chazé-sur-Argos",
      "lat": 47.6111,
      "lon": -0.8954,
      "population": 1086
    },
    {
      "insee": "49090",
      "nom": "Cheffes",
      "lat": 47.6236,
      "lon": -0.5126,
      "population": 1044
    },
    {
      "insee": "49092",
      "nom": "Chemillé-en-Anjou",
      "lat": 47.2211,
      "lon": -0.6964,
      "population": 21999
    },
    {
      "insee": "49067",
      "nom": "Chenillé-Champteussé",
      "lat": 47.6787,
      "lon": -0.6585,
      "population": 336
    },
    {
      "insee": "49099",
      "nom": "Cholet",
      "lat": 47.0358,
      "lon": -0.875,
      "population": 54404
    },
    {
      "insee": "49100",
      "nom": "Cizay-la-Madeleine",
      "lat": 47.1826,
      "lon": -0.1834,
      "population": 473
    },
    {
      "insee": "49102",
      "nom": "Cléré-sur-Layon",
      "lat": 47.0829,
      "lon": -0.4363,
      "population": 348
    },
    {
      "insee": "49107",
      "nom": "Cornillé-les-Caves",
      "lat": 47.4925,
      "lon": -0.3056,
      "population": 484
    },
    {
      "insee": "49109",
      "nom": "Coron",
      "lat": 47.1201,
      "lon": -0.6383,
      "population": 1603
    },
    {
      "insee": "49110",
      "nom": "Corzé",
      "lat": 47.5429,
      "lon": -0.3697,
      "population": 1991
    },
    {
      "insee": "49113",
      "nom": "Courchamps",
      "lat": 47.1958,
      "lon": -0.1605,
      "population": 533
    },
    {
      "insee": "49114",
      "nom": "Courléon",
      "lat": 47.3822,
      "lon": 0.1491,
      "population": 142
    },
    {
      "insee": "49120",
      "nom": "Denée",
      "lat": 47.3778,
      "lon": -0.611,
      "population": 1449
    },
    {
      "insee": "49121",
      "nom": "Dénezé-sous-Doué",
      "lat": 47.2524,
      "lon": -0.2596,
      "population": 444
    },
    {
      "insee": "49123",
      "nom": "Distré",
      "lat": 47.2273,
      "lon": -0.1217,
      "population": 1806
    },
    {
      "insee": "49125",
      "nom": "Doué-en-Anjou",
      "lat": 47.1988,
      "lon": -0.3053,
      "population": 11029
    },
    {
      "insee": "49127",
      "nom": "Durtal",
      "lat": 47.6654,
      "lon": -0.2456,
      "population": 3386
    },
    {
      "insee": "49129",
      "nom": "Écouflant",
      "lat": 47.524,
      "lon": -0.519,
      "population": 4749
    },
    {
      "insee": "49130",
      "nom": "Écuillé",
      "lat": 47.6158,
      "lon": -0.5559,
      "population": 655
    },
    {
      "insee": "49131",
      "nom": "Épieds",
      "lat": 47.1365,
      "lon": -0.0335,
      "population": 711
    },
    {
      "insee": "49367",
      "nom": "Erdre-en-Anjou",
      "lat": 47.589,
      "lon": -0.8178,
      "population": 5771
    },
    {
      "insee": "49132",
      "nom": "Étriché",
      "lat": 47.6588,
      "lon": -0.4536,
      "population": 1600
    },
    {
      "insee": "49135",
      "nom": "Feneu",
      "lat": 47.5832,
      "lon": -0.6038,
      "population": 2212
    },
    {
      "insee": "49140",
      "nom": "Fontevraud-l'Abbaye",
      "lat": 47.1819,
      "lon": 0.0261,
      "population": 1453
    },
    {
      "insee": "49261",
      "nom": "Gennes-Val-de-Loire",
      "lat": 47.3424,
      "lon": -0.2352,
      "population": 8429
    },
    {
      "insee": "49155",
      "nom": "Grez-Neuville",
      "lat": 47.5916,
      "lon": -0.6864,
      "population": 1447
    },
    {
      "insee": "49174",
      "nom": "Huillé-Lézigné",
      "lat": 47.6512,
      "lon": -0.2934,
      "population": 1298
    },
    {
      "insee": "49160",
      "nom": "Ingrandes-le-Fresne-sur-Loire",
      "lat": 47.4319,
      "lon": -0.9323,
      "population": 3071
    },
    {
      "insee": "49163",
      "nom": "Jarzé Villages",
      "lat": 47.5606,
      "lon": -0.2563,
      "population": 2798
    },
    {
      "insee": "49170",
      "nom": "Juvardeil",
      "lat": 47.6611,
      "lon": -0.5145,
      "population": 833
    },
    {
      "insee": "49045",
      "nom": "La Breille-les-Pins",
      "lat": 47.3515,
      "lon": 0.0819,
      "population": 624
    },
    {
      "insee": "49076",
      "nom": "La Chapelle-Saint-Laud",
      "lat": 47.6161,
      "lon": -0.2949,
      "population": 837
    },
    {
      "insee": "49161",
      "nom": "La Jaille-Yvon",
      "lat": 47.7226,
      "lon": -0.6889,
      "population": 343
    },
    {
      "insee": "49171",
      "nom": "La Lande-Chasles",
      "lat": 47.4607,
      "lon": -0.0702,
      "population": 116
    },
    {
      "insee": "49201",
      "nom": "La Ménitré",
      "lat": 47.4099,
      "lon": -0.2565,
      "population": 2079
    },
    {
      "insee": "49237",
      "nom": "La Pellerine",
      "lat": 47.4578,
      "lon": 0.1347,
      "population": 141
    },
    {
      "insee": "49240",
      "nom": "La Plaine",
      "lat": 47.0655,
      "lon": -0.6294,
      "population": 1018
    },
    {
      "insee": "49247",
      "nom": "La Possonnière",
      "lat": 47.3848,
      "lon": -0.7059,
      "population": 2501
    },
    {
      "insee": "49260",
      "nom": "La Romagne",
      "lat": 47.0559,
      "lon": -1.0082,
      "population": 2028
    },
    {
      "insee": "49332",
      "nom": "La Séguinière",
      "lat": 47.0794,
      "lon": -0.9622,
      "population": 4248
    },
    {
      "insee": "49343",
      "nom": "La Tessoualle",
      "lat": 47.0113,
      "lon": -0.834,
      "population": 3167
    },
    {
      "insee": "49112",
      "nom": "Le Coudray-Macouard",
      "lat": 47.1844,
      "lon": -0.1298,
      "population": 918
    },
    {
      "insee": "49176",
      "nom": "Le Lion-d'Angers",
      "lat": 47.634,
      "lon": -0.7517,
      "population": 5390
    },
    {
      "insee": "49193",
      "nom": "Le May-sur-Èvre",
      "lat": 47.1304,
      "lon": -0.8757,
      "population": 3920
    },
    {
      "insee": "49241",
      "nom": "Le Plessis-Grammoire",
      "lat": 47.4941,
      "lon": -0.4365,
      "population": 2664
    },
    {
      "insee": "49253",
      "nom": "Le Puy-Notre-Dame",
      "lat": 47.1142,
      "lon": -0.2281,
      "population": 1084
    },
    {
      "insee": "49138",
      "nom": "Les Bois d'Anjou",
      "lat": 47.4536,
      "lon": -0.1695,
      "population": 2525
    },
    {
      "insee": "49058",
      "nom": "Les Cerqueux",
      "lat": 47.008,
      "lon": -0.639,
      "population": 897
    },
    {
      "insee": "49167",
      "nom": "Les Garennes sur Loire",
      "lat": 47.3851,
      "lon": -0.4727,
      "population": 4663
    },
    {
      "insee": "49080",
      "nom": "Les Hauts-d'Anjou",
      "lat": 47.697,
      "lon": -0.5499,
      "population": 8751
    },
    {
      "insee": "49246",
      "nom": "Les Ponts-de-Cé",
      "lat": 47.427,
      "lon": -0.511,
      "population": 13149
    },
    {
      "insee": "49257",
      "nom": "Les Rairies",
      "lat": 47.6499,
      "lon": -0.2157,
      "population": 1041
    },
    {
      "insee": "49359",
      "nom": "Les Ulmes",
      "lat": 47.2251,
      "lon": -0.1824,
      "population": 544
    },
    {
      "insee": "49178",
      "nom": "Loiré",
      "lat": 47.6269,
      "lon": -0.9679,
      "population": 900
    },
    {
      "insee": "49307",
      "nom": "Loire-Authion",
      "lat": 47.4695,
      "lon": -0.3734,
      "population": 16765
    },
    {
      "insee": "49180",
      "nom": "Longué-Jumelles",
      "lat": 47.3961,
      "lon": -0.1092,
      "population": 6564
    },
    {
      "insee": "49200",
      "nom": "Longuenée-en-Anjou",
      "lat": 47.5523,
      "lon": -0.6797,
      "population": 6571
    },
    {
      "insee": "49182",
      "nom": "Louresse-Rochemenier",
      "lat": 47.2494,
      "lon": -0.3124,
      "population": 896
    },
    {
      "insee": "49373",
      "nom": "Lys-Haut-Layon",
      "lat": 47.1504,
      "lon": -0.4618,
      "population": 7748
    },
    {
      "insee": "49188",
      "nom": "Marcé",
      "lat": 47.5825,
      "lon": -0.2993,
      "population": 843
    },
    {
      "insee": "49244",
      "nom": "Mauges-sur-Loire",
      "lat": 47.3435,
      "lon": -0.9351,
      "population": 18695
    },
    {
      "insee": "49192",
      "nom": "Maulévrier",
      "lat": 47.0159,
      "lon": -0.7662,
      "population": 3172
    },
    {
      "insee": "49194",
      "nom": "Mazé-Milon",
      "lat": 47.4713,
      "lon": -0.2785,
      "population": 5761
    },
    {
      "insee": "49195",
      "nom": "Mazières-en-Mauges",
      "lat": 47.0606,
      "lon": -0.7967,
      "population": 1240
    },
    {
      "insee": "49205",
      "nom": "Miré",
      "lat": 47.7642,
      "lon": -0.4931,
      "population": 1060
    },
    {
      "insee": "49209",
      "nom": "Montigné-lès-Rairies",
      "lat": 47.6268,
      "lon": -0.2129,
      "population": 418
    },
    {
      "insee": "49211",
      "nom": "Montilliers",
      "lat": 47.1805,
      "lon": -0.5186,
      "population": 1222
    },
    {
      "insee": "49215",
      "nom": "Montreuil-Bellay",
      "lat": 47.1295,
      "lon": -0.1246,
      "population": 3746
    },
    {
      "insee": "49214",
      "nom": "Montreuil-Juigné",
      "lat": 47.5451,
      "lon": -0.6178,
      "population": 7808
    },
    {
      "insee": "49216",
      "nom": "Montreuil-sur-Loir",
      "lat": 47.5972,
      "lon": -0.3936,
      "population": 572
    },
    {
      "insee": "49217",
      "nom": "Montreuil-sur-Maine",
      "lat": 47.6579,
      "lon": -0.7123,
      "population": 804
    },
    {
      "insee": "49218",
      "nom": "Montrevault-sur-Èvre",
      "lat": 47.2494,
      "lon": -1.0204,
      "population": 15726
    },
    {
      "insee": "49219",
      "nom": "Montsoreau",
      "lat": 47.213,
      "lon": 0.0559,
      "population": 408
    },
    {
      "insee": "49220",
      "nom": "Morannes sur Sarthe-Daumeray",
      "lat": 47.7181,
      "lon": -0.3816,
      "population": 3687
    },
    {
      "insee": "49221",
      "nom": "Mouliherne",
      "lat": 47.4503,
      "lon": 0.0176,
      "population": 836
    },
    {
      "insee": "49222",
      "nom": "Mozé-sur-Louet",
      "lat": 47.364,
      "lon": -0.5707,
      "population": 2031
    },
    {
      "insee": "49223",
      "nom": "Mûrs-Erigné",
      "lat": 47.3948,
      "lon": -0.5529,
      "population": 6408
    },
    {
      "insee": "49224",
      "nom": "Neuillé",
      "lat": 47.3321,
      "lon": -0.0175,
      "population": 1028
    },
    {
      "insee": "49228",
      "nom": "Noyant-Villages",
      "lat": 47.5111,
      "lon": 0.1027,
      "population": 5448
    },
    {
      "insee": "49231",
      "nom": "Nuaillé",
      "lat": 47.0821,
      "lon": -0.7748,
      "population": 1459
    },
    {
      "insee": "49248",
      "nom": "Ombrée d'Anjou",
      "lat": 47.7232,
      "lon": -1.1086,
      "population": 8813
    },
    {
      "insee": "49126",
      "nom": "Orée d'Anjou",
      "lat": 47.3042,
      "lon": -1.2135,
      "population": 17162
    },
    {
      "insee": "49235",
      "nom": "Parnay",
      "lat": 47.2209,
      "lon": 0.0051,
      "population": 373
    },
    {
      "insee": "49236",
      "nom": "Passavant-sur-Layon",
      "lat": 47.1013,
      "lon": -0.3852,
      "population": 126
    },
    {
      "insee": "49377",
      "nom": "Rives-du-Loir-en-Anjou",
      "lat": 47.5572,
      "lon": -0.4448,
      "population": 5644
    },
    {
      "insee": "49259",
      "nom": "Rochefort-sur-Loire",
      "lat": 47.3462,
      "lon": -0.6594,
      "population": 2333
    },
    {
      "insee": "49262",
      "nom": "Rou-Marson",
      "lat": 47.2461,
      "lon": -0.1529,
      "population": 638
    },
    {
      "insee": "49266",
      "nom": "Saint-Augustin-des-Bois",
      "lat": 47.4548,
      "lon": -0.8042,
      "population": 1295
    },
    {
      "insee": "49267",
      "nom": "Saint-Barthélemy-d'Anjou",
      "lat": 47.4741,
      "lon": -0.4826,
      "population": 9720
    },
    {
      "insee": "49269",
      "nom": "Saint-Christophe-du-Bois",
      "lat": 47.0309,
      "lon": -0.971,
      "population": 2828
    },
    {
      "insee": "49271",
      "nom": "Saint-Clément-de-la-Place",
      "lat": 47.5264,
      "lon": -0.7328,
      "population": 2168
    },
    {
      "insee": "49272",
      "nom": "Saint-Clément-des-Levées",
      "lat": 47.3495,
      "lon": -0.1803,
      "population": 1128
    },
    {
      "insee": "49283",
      "nom": "Saint-Georges-sur-Loire",
      "lat": 47.4031,
      "lon": -0.7537,
      "population": 3836
    },
    {
      "insee": "49284",
      "nom": "Saint-Germain-des-Prés",
      "lat": 47.4099,
      "lon": -0.8082,
      "population": 1388
    },
    {
      "insee": "49288",
      "nom": "Saint-Jean-de-la-Croix",
      "lat": 47.4112,
      "lon": -0.5844,
      "population": 232
    },
    {
      "insee": "49291",
      "nom": "Saint-Just-sur-Dive",
      "lat": 47.1718,
      "lon": -0.1027,
      "population": 373
    },
    {
      "insee": "49294",
      "nom": "Saint-Lambert-la-Potherie",
      "lat": 47.487,
      "lon": -0.6904,
      "population": 2974
    },
    {
      "insee": "49298",
      "nom": "Saint-Léger-de-Linières",
      "lat": 47.4609,
      "lon": -0.7069,
      "population": 3866
    },
    {
      "insee": "49299",
      "nom": "Saint-Léger-sous-Cholet",
      "lat": 47.1022,
      "lon": -0.9007,
      "population": 3106
    },
    {
      "insee": "49302",
      "nom": "Saint-Macaire-du-Bois",
      "lat": 47.1135,
      "lon": -0.288,
      "population": 439
    },
    {
      "insee": "49306",
      "nom": "Saint-Martin-du-Fouilloux",
      "lat": 47.4355,
      "lon": -0.7115,
      "population": 1705
    },
    {
      "insee": "49308",
      "nom": "Saint-Melaine-sur-Aubance",
      "lat": 47.3819,
      "lon": -0.4986,
      "population": 2216
    },
    {
      "insee": "49310",
      "nom": "Saint-Paul-du-Bois",
      "lat": 47.0905,
      "lon": -0.539,
      "population": 598
    },
    {
      "insee": "49311",
      "nom": "Saint-Philbert-du-Peuple",
      "lat": 47.3901,
      "lon": -0.0471,
      "population": 1307
    },
    {
      "insee": "49278",
      "nom": "Sainte-Gemmes-sur-Loire",
      "lat": 47.4296,
      "lon": -0.5702,
      "population": 3685
    },
    {
      "insee": "49326",
      "nom": "Sarrigné",
      "lat": 47.5032,
      "lon": -0.3894,
      "population": 935
    },
    {
      "insee": "49328",
      "nom": "Saumur",
      "lat": 47.2645,
      "lon": -0.0837,
      "population": 26241
    },
    {
      "insee": "49329",
      "nom": "Savennières",
      "lat": 47.4064,
      "lon": -0.664,
      "population": 1349
    },
    {
      "insee": "49330",
      "nom": "Sceaux-d'Anjou",
      "lat": 47.6295,
      "lon": -0.6061,
      "population": 1155
    },
    {
      "insee": "49331",
      "nom": "Segré-en-Anjou Bleu",
      "lat": 47.7111,
      "lon": -0.854,
      "population": 17667
    },
    {
      "insee": "49333",
      "nom": "Seiches-sur-le-Loir",
      "lat": 47.5963,
      "lon": -0.3646,
      "population": 2844
    },
    {
      "insee": "49334",
      "nom": "Sermaise",
      "lat": 47.5225,
      "lon": -0.2156,
      "population": 345
    },
    {
      "insee": "49301",
      "nom": "Sèvremoine",
      "lat": 47.0878,
      "lon": -1.0968,
      "population": 25797
    },
    {
      "insee": "49336",
      "nom": "Somloire",
      "lat": 47.0356,
      "lon": -0.597,
      "population": 884
    },
    {
      "insee": "49338",
      "nom": "Soulaines-sur-Aubance",
      "lat": 47.3616,
      "lon": -0.5218,
      "population": 1329
    },
    {
      "insee": "49339",
      "nom": "Soulaire-et-Bourg",
      "lat": 47.5761,
      "lon": -0.5402,
      "population": 1467
    },
    {
      "insee": "49341",
      "nom": "Souzay-Champigny",
      "lat": 47.2209,
      "lon": -0.0272,
      "population": 686
    },
    {
      "insee": "49086",
      "nom": "Terranjou",
      "lat": 47.269,
      "lon": -0.443,
      "population": 3871
    },
    {
      "insee": "49344",
      "nom": "Thorigné-d'Anjou",
      "lat": 47.6356,
      "lon": -0.6619,
      "population": 1223
    },
    {
      "insee": "49347",
      "nom": "Tiercé",
      "lat": 47.6254,
      "lon": -0.4449,
      "population": 4589
    },
    {
      "insee": "49352",
      "nom": "Toutlemonde",
      "lat": 47.0591,
      "lon": -0.7599,
      "population": 1305
    },
    {
      "insee": "49353",
      "nom": "Trélazé",
      "lat": 47.4522,
      "lon": -0.478,
      "population": 16333
    },
    {
      "insee": "49355",
      "nom": "Trémentines",
      "lat": 47.1261,
      "lon": -0.8036,
      "population": 3101
    },
    {
      "insee": "49003",
      "nom": "Tuffalun",
      "lat": 47.2705,
      "lon": -0.3222,
      "population": 1746
    },
    {
      "insee": "49358",
      "nom": "Turquant",
      "lat": 47.2131,
      "lon": 0.017,
      "population": 566
    },
    {
      "insee": "49183",
      "nom": "Val d'Erdre-Auxence",
      "lat": 47.5049,
      "lon": -0.9374,
      "population": 4981
    },
    {
      "insee": "49292",
      "nom": "Val-du-Layon",
      "lat": 47.3135,
      "lon": -0.6529,
      "population": 3510
    },
    {
      "insee": "49361",
      "nom": "Varennes-sur-Loire",
      "lat": 47.2451,
      "lon": 0.0371,
      "population": 1922
    },
    {
      "insee": "49362",
      "nom": "Varrains",
      "lat": 47.2276,
      "lon": -0.0661,
      "population": 1312
    },
    {
      "insee": "49364",
      "nom": "Vaudelnay",
      "lat": 47.1396,
      "lon": -0.2148,
      "population": 1122
    },
    {
      "insee": "49368",
      "nom": "Vernantes",
      "lat": 47.3945,
      "lon": 0.0259,
      "population": 2004
    },
    {
      "insee": "49369",
      "nom": "Vernoil-le-Fourrier",
      "lat": 47.3972,
      "lon": 0.1001,
      "population": 1366
    },
    {
      "insee": "49370",
      "nom": "Verrie",
      "lat": 47.2659,
      "lon": -0.19,
      "population": 458
    },
    {
      "insee": "49323",
      "nom": "Verrières-en-Anjou",
      "lat": 47.5182,
      "lon": -0.4746,
      "population": 8116
    },
    {
      "insee": "49371",
      "nom": "Vezins",
      "lat": 47.1139,
      "lon": -0.7198,
      "population": 1758
    },
    {
      "insee": "49374",
      "nom": "Villebernier",
      "lat": 47.2644,
      "lon": -0.0218,
      "population": 1441
    },
    {
      "insee": "49378",
      "nom": "Vivy",
      "lat": 47.3211,
      "lon": -0.071,
      "population": 2582
    },
    {
      "insee": "49381",
      "nom": "Yzernay",
      "lat": 47.0292,
      "lon": -0.6909,
      "population": 1855
    }
  ]
}